~VERSION INFORMATION                                                           
 VERS.           2.0: CWLS Log ASCII Standard - Version 2.0                    
 WRAP.            NO: One Line per Depth Step                                  
~WELL INFORMATION                                                              
#MNEM.UNIT              DATA            DESCRIPTION OF MNEMONIC                
#-----------            ----            -----------------------                
 STRT.M            2891.00              :Start Depth                           
 STOP.M            6549.51              :Stop Depth                            
 STEP.M             0.1524              :Step                                  
 NULL.              -99999.0            :Null Value                            
 COMP.     PETROLEO BRASILEIRO S/A      :Company                               
 ORIG.     SIGEO EXPORTACAO PERFIL      :Origem dos dados                      
 WELL.     1SES 0173  SE                :Well                                  
 FLD.                                   :Field                                 
 STAT.     SERGIPE                      :State                                 
 API.      901210520900                 :API Code                              
 UWI.      901210520900                 :API Code                              
 XCOORD.           758643.00            :Surface X                             
 YCOORD.          8723117.00            :Surface Y                             
 HZCS.           UTM                    :Horizontal Coordinate System          
 MC.               39 W                 :Meridiano Central                     
 LAT.             -11.541114            :Latitude                              
 LONG.            -36.628620            :Longitude                             
 GDAT.             SIRGAS2000           :Geodetic Datum                        
 EDF.M              25.00               :Elevation Derrick Floor               
 WDMS.M           2820.00               :Water Depth to Mean Sea Level         
~CURVE INFORMATION                                                             
 DEPT.M                                 :Measured Depth                        
 COTA.M                                 :Vertical Depth (without EKB)          
 TVD.M                                  :Vertical Depth                        
 CoordEW.                                :Coordinate East/West                 
 CoordNS.                                :Coordinate North/South               
 BRGR.gAPI                              :RAIOS GAMA (COMPOSICAO DE CURVAS CABO E/OU LWD)
 BRNEUT.%                               :POROSIDADE NEUTRONICA (COMPOSICAO DE CURVAS CABO E/OU LWD)
 BRDENS.g/cm3                           :DENSIDADE (COMPOSICAO DE CURVAS CABO E/OU LWD )
 BRDTP.us/ft                            :SONICO COMPRESSIONAL (COMPOSICAO DE CURVAS CABO E/OU LWD)
 BRCALI.in                              :CALIPER (COMPOSICAO DE CURVAS CABO E/OU LWD)
~ASCII LOG DATA                                                                
# ...
     4107.1520           -4082.1181            4107.1181       758639.08       8723123.40   52.0216  -99999.0  -99999.0  136.6886  -99999.0 
     4107.3044           -4082.2705            4107.2705       758639.08       8723123.40   53.3250  -99999.0  -99999.0  136.7224  -99999.0 
     4107.4568           -4082.4229            4107.4229       758639.08       8723123.40   55.5441  -99999.0  -99999.0  136.8417  -99999.0 
     4107.6092           -4082.5753            4107.5753       758639.08       8723123.41   55.5613  -99999.0  -99999.0  137.0129  -99999.0 
     4107.7616           -4082.7277            4107.7277       758639.08       8723123.41   55.5331  -99999.0  -99999.0  137.1988  -99999.0 
     4107.9140           -4082.8801            4107.8801       758639.08       8723123.41   55.4584  -99999.0  -99999.0  137.1682  -99999.0 
     4108.0664           -4083.0325            4108.0325       758639.08       8723123.41   54.6676  -99999.0  -99999.0  136.8161  -99999.0 
     4108.2188           -4083.1849            4108.1849       758639.08       8723123.41   53.4281  -99999.0  -99999.0  136.2838  -99999.0 
     4108.3712           -4083.3373            4108.3373       758639.08       8723123.41   52.6840  -99999.0  -99999.0  135.5176  -99999.0 
     4108.5236           -4083.4896            4108.4896       758639.08       8723123.42   52.3581  -99999.0  -99999.0  134.5776  -99999.0 
     4108.6760           -4083.6420            4108.6420       758639.08       8723123.42   52.1152  -99999.0  -99999.0  133.6121  -99999.0 
     4108.8284           -4083.7944            4108.7944       758639.08       8723123.42   53.1626  -99999.0  -99999.0  132.7962  -99999.0 
     4108.9808           -4083.9468            4108.9468       758639.08       8723123.42   52.9144  -99999.0  -99999.0  132.2450  -99999.0 
     4109.1332           -4084.0992            4109.0992       758639.08       8723123.42   54.2530  -99999.0  -99999.0  132.1458  -99999.0 
     4109.2856           -4084.2516            4109.2516       758639.08       8723123.42   55.0295  -99999.0  -99999.0  132.4561  -99999.0 
     4109.4380           -4084.4040            4109.4040       758639.08       8723123.43   54.7563  -99999.0  -99999.0  132.7807  -99999.0 
     4109.5904           -4084.5564            4109.5564       758639.08       8723123.43   54.3100  -99999.0  -99999.0  132.9970  -99999.0 
     4109.7428           -4084.7088            4109.7088       758639.08       8723123.43   53.3622  -99999.0  -99999.0  133.1559  -99999.0 
     4109.8952           -4084.8612            4109.8612       758639.08       8723123.43   53.2063  -99999.0  -99999.0  133.3750  -99999.0 
     4110.0476           -4085.0136            4110.0136       758639.08       8723123.43   54.1048  -99999.0  -99999.0  133.4334  -99999.0 
     4110.2000           -4085.1659            4110.1659       758639.08       8723123.43   53.8343  -99999.0  -99999.0  133.3502  -99999.0 
     4110.3524           -4085.3183            4110.3183       758639.08       8723123.44   53.7400  -99999.0  -99999.0  133.3027  -99999.0 
     4110.5048           -4085.4707            4110.4707       758639.08       8723123.44   53.8615  -99999.0  -99999.0  133.2326  -99999.0 
     4110.6572           -4085.6231            4110.6231       758639.08       8723123.44   53.7799  -99999.0  -99999.0  133.1527  -99999.0 
     4110.8096           -4085.7755            4110.7755       758639.08       8723123.44   54.3725  -99999.0  -99999.0  132.8492  -99999.0 
     4110.9620           -4085.9279            4110.9279       758639.08       8723123.44   53.6238  -99999.0  -99999.0  132.3121  -99999.0 
     4111.1144           -4086.0803            4111.0803       758639.08       8723123.44   52.7078  -99999.0  -99999.0  131.7876  -99999.0 
     4111.2668           -4086.2327            4111.2327       758639.08       8723123.45   53.4961  -99999.0  -99999.0  131.7276  -99999.0 
     4111.4192           -4086.3851            4111.3851       758639.08       8723123.45   55.6155  -99999.0  -99999.0  132.2740  -99999.0 
     4111.5716           -4086.5375            4111.5375       758639.08       8723123.45   57.2274  -99999.0  -99999.0  133.2657  -99999.0 
     4111.7240           -4086.6898            4111.6898       758639.08       8723123.45   56.4798  -99999.0  -99999.0  134.6709  -99999.0 
     4111.8764           -4086.8422            4111.8422       758639.08       8723123.45   54.1400  -99999.0  -99999.0  136.3531  -99999.0 
     4112.0288           -4086.9946            4111.9946       758639.08       8723123.45   53.0142  -99999.0  -99999.0  138.2558  -99999.0 
     4112.1812           -4087.1470            4112.1470       758639.08       8723123.46   54.4477  -99999.0  -99999.0  140.1297  -99999.0 
     4112.3336           -4087.2994            4112.2994       758639.08       8723123.46   57.0733  -99999.0  -99999.0  142.0033  -99999.0 
     4112.4860           -4087.4518            4112.4518       758639.08       8723123.46   59.0835  -99999.0  -99999.0  143.9796  -99999.0 
     4112.6384           -4087.6042            4112.6042       758639.08       8723123.46   62.1821  -99999.0  -99999.0  145.7180  -99999.0 
     4112.7908           -4087.7566            4112.7566       758639.08       8723123.46   65.5971  -99999.0  -99999.0  147.2688  -99999.0 
     4112.9432           -4087.9090            4112.9090       758639.08       8723123.46   68.3634  -99999.0  -99999.0  148.5699  -99999.0 
     4113.0956           -4088.0614            4113.0614       758639.08       8723123.47   65.6055  -99999.0  -99999.0  149.6201  -99999.0 
     4113.2480           -4088.2138            4113.2138       758639.09       8723123.47   62.9897  -99999.0  -99999.0  150.3124  -99999.0 
     4113.4004           -4088.3661            4113.3661       758639.09       8723123.47   63.6328  -99999.0  -99999.0  150.6422  -99999.0 
     4113.5528           -4088.5185            4113.5185       758639.09       8723123.47   64.0538  -99999.0  -99999.0  150.5824  -99999.0 
     4113.7052           -4088.6709            4113.6709       758639.09       8723123.47   64.6515  -99999.0  -99999.0  150.3925  -99999.0 
     4113.8576           -4088.8233            4113.8233       758639.09       8723123.47   64.8845  -99999.0  -99999.0  150.4746  -99999.0 
     4114.0100           -4088.9757            4113.9757       758639.09       8723123.48   63.7245  -99999.0  -99999.0  150.5550  -99999.0 
     4114.1624           -4089.1281            4114.1281       758639.09       8723123.48   63.2838  -99999.0  -99999.0  150.6763  -99999.0 
     4114.3148           -4089.2805            4114.2805       758639.09       8723123.48   64.3840  -99999.0  -99999.0  151.1271  -99999.0 
     4114.4672           -4089.4329            4114.4329       758639.09       8723123.48   64.6469  -99999.0  -99999.0  151.5247  -99999.0 
     4114.6196           -4089.5853            4114.5853       758639.09       8723123.48   63.3883  -99999.0  -99999.0  151.6096  -99999.0 
     4114.7720           -4089.7377            4114.7377       758639.09       8723123.49   63.2809  -99999.0  -99999.0  151.3249  -99999.0 
     4114.9244           -4089.8901            4114.8901       758639.09       8723123.49   63.9271  -99999.0  -99999.0  150.3372  -99999.0 
     4115.0768           -4090.0428            4115.0428       758639.08       8723123.49   63.0773  -99999.0  -99999.0  148.9545  -99999.0 
     4115.2292           -4090.1958            4115.1958       758639.08       8723123.49   62.0387  -99999.0  -99999.0  147.4112  -99999.0 
     4115.3816           -4090.3489            4115.3489       758639.08       8723123.49   63.4286  -99999.0  -99999.0  145.8769  -99999.0 
     4115.5340           -4090.5020            4115.5020       758639.08       8723123.49   66.2355  -99999.0  -99999.0  144.5281  -99999.0 
     4115.6864           -4090.6550            4115.6550       758639.08       8723123.49   66.2351  -99999.0  -99999.0  143.4546  -99999.0 
