~VERSION INFORMATION                                                           
 VERS.           2.0: CWLS Log ASCII Standard - Version 2.0                    
 WRAP.            NO: One Line per Depth Step                                  
~WELL INFORMATION                                                              
#MNEM.UNIT              DATA            DESCRIPTION OF MNEMONIC                
#-----------            ----            -----------------------                
 STRT.M            2891.00              :Start Depth                           
 STOP.M            6549.51              :Stop Depth                            
 STEP.M             0.1524              :Step                                  
 NULL.              -99999.0            :Null Value                            
 COMP.     PETROLEO BRASILEIRO S/A      :Company                               
 ORIG.     SIGEO EXPORTACAO PERFIL      :Origem dos dados                      
 WELL.     1SES 0173  SE                :Well                                  
 FLD.                                   :Field                                 
 STAT.     SERGIPE                      :State                                 
 API.      901210520900                 :API Code                              
 UWI.      901210520900                 :API Code                              
 XCOORD.           758643.00            :Surface X                             
 YCOORD.          8723117.00            :Surface Y                             
 HZCS.           UTM                    :Horizontal Coordinate System          
 MC.               39 W                 :Meridiano Central                     
 LAT.             -11.541114            :Latitude                              
 LONG.            -36.628620            :Longitude                             
 GDAT.             SIRGAS2000           :Geodetic Datum                        
 EDF.M              25.00               :Elevation Derrick Floor               
 WDMS.M           2820.00               :Water Depth to Mean Sea Level         
~CURVE INFORMATION                                                             
 DEPT.M                                 :Measured Depth                        
 COTA.M                                 :Vertical Depth (without EKB)          
 TVD.M                                  :Vertical Depth                        
 CoordEW.                                :Coordinate East/West                 
 CoordNS.                                :Coordinate North/South               
 BRGR.gAPI                              :RAIOS GAMA (COMPOSICAO DE CURVAS CABO E/OU LWD)
 BRNEUT.%                               :POROSIDADE NEUTRONICA (COMPOSICAO DE CURVAS CABO E/OU LWD)
 BRDENS.g/cm3                           :DENSIDADE (COMPOSICAO DE CURVAS CABO E/OU LWD )
 BRDTP.us/ft                            :SONICO COMPRESSIONAL (COMPOSICAO DE CURVAS CABO E/OU LWD)
 BRCALI.in                              :CALIPER (COMPOSICAO DE CURVAS CABO E/OU LWD)
~ASCII LOG DATA                                                                
# ...
     4593.6128           -4568.5215            4593.5215       758641.62       8723129.98   33.0024  -99999.0  -99999.0  104.5144  -99999.0 
     4593.7652           -4568.6739            4593.6739       758641.62       8723129.99   33.7683  -99999.0  -99999.0  104.5403  -99999.0 
     4593.9176           -4568.8263            4593.8263       758641.62       8723129.99   35.2507  -99999.0  -99999.0  104.9831  -99999.0 
     4594.0700           -4568.9786            4593.9786       758641.63       8723129.99   36.6899  -99999.0  -99999.0  105.4911  -99999.0 
     4594.2224           -4569.1310            4594.1310       758641.63       8723129.99   36.7960  -99999.0  -99999.0  105.9434  -99999.0 
     4594.3748           -4569.2834            4594.2834       758641.63       8723129.99   36.3563  -99999.0  -99999.0  106.3063  -99999.0 
     4594.5272           -4569.4358            4594.4358       758641.63       8723130.00   36.2182  -99999.0  -99999.0  106.2687  -99999.0 
     4594.6796           -4569.5881            4594.5881       758641.63       8723130.00   35.8272  -99999.0  -99999.0  105.9818  -99999.0 
     4594.8320           -4569.7405            4594.7405       758641.63       8723130.00   35.1492  -99999.0  -99999.0  105.4627  -99999.0 
     4594.9844           -4569.8929            4594.8929       758641.64       8723130.00   33.3094  -99999.0  -99999.0  104.9233  -99999.0 
     4595.1368           -4570.0453            4595.0453       758641.64       8723130.00   32.7237  -99999.0  -99999.0  104.6376  -99999.0 
     4595.2892           -4570.1977            4595.1977       758641.64       8723130.01   33.2585  -99999.0  -99999.0  104.4931  -99999.0 
     4595.4416           -4570.3500            4595.3500       758641.64       8723130.01   33.2919  -99999.0  -99999.0  104.6907  -99999.0 
     4595.5940           -4570.5024            4595.5024       758641.64       8723130.01   34.3930  -99999.0  -99999.0  104.9790  -99999.0 
     4595.7464           -4570.6548            4595.6548       758641.64       8723130.01   35.4199  -99999.0  -99999.0  105.1637  -99999.0 
     4595.8988           -4570.8072            4595.8072       758641.65       8723130.01   35.8488  -99999.0  -99999.0  105.4005  -99999.0 
     4596.0512           -4570.9595            4595.9595       758641.65       8723130.02   34.9860  -99999.0  -99999.0  105.7393  -99999.0 
     4596.2036           -4571.1119            4596.1119       758641.65       8723130.02   34.5231  -99999.0  -99999.0  106.1358  -99999.0 
     4596.3560           -4571.2643            4596.2643       758641.65       8723130.02   34.6559  -99999.0  -99999.0  106.3484  -99999.0 
     4596.5084           -4571.4167            4596.4167       758641.65       8723130.02   34.6145  -99999.0  -99999.0  106.4566  -99999.0 
     4596.6608           -4571.5691            4596.5691       758641.65       8723130.02   35.8019  -99999.0  -99999.0  106.3740  -99999.0 
     4596.8132           -4571.7214            4596.7214       758641.65       8723130.03   36.9627  -99999.0  -99999.0  106.1777  -99999.0 
     4596.9656           -4571.8738            4596.8738       758641.66       8723130.03   34.8290  -99999.0  -99999.0  105.8637  -99999.0 
     4597.1180           -4572.0262            4597.0262       758641.66       8723130.03   34.6336  -99999.0  -99999.0  105.5004  -99999.0 
     4597.2704           -4572.1786            4597.1786       758641.66       8723130.03   36.7902  -99999.0  -99999.0  105.2899  -99999.0 
     4597.4228           -4572.3309            4597.3309       758641.66       8723130.04   36.0401  -99999.0  -99999.0  105.1543  -99999.0 
     4597.5752           -4572.4833            4597.4833       758641.66       8723130.04   34.8012  -99999.0  -99999.0  105.0335  -99999.0 
     4597.7276           -4572.6357            4597.6357       758641.66       8723130.04   36.8416  -99999.0  -99999.0  104.8168  -99999.0 
     4597.8800           -4572.7881            4597.7881       758641.67       8723130.04   38.7748  -99999.0  -99999.0  104.4982  -99999.0 
     4598.0324           -4572.9404            4597.9404       758641.67       8723130.04   36.7440  -99999.0  -99999.0  104.0250  -99999.0 
     4598.1848           -4573.0928            4598.0928       758641.67       8723130.05   35.9247  -99999.0  -99999.0  103.5172  -99999.0 
     4598.3372           -4573.2452            4598.2452       758641.67       8723130.05   36.1021  -99999.0  -99999.0  103.0765  -99999.0 
     4598.4896           -4573.3976            4598.3976       758641.67       8723130.05   32.8591  -99999.0  -99999.0  102.6461  -99999.0 
     4598.6420           -4573.5499            4598.5499       758641.67       8723130.05   30.3956  -99999.0  -99999.0  102.5649  -99999.0 
     4598.7944           -4573.7023            4598.7023       758641.68       8723130.06   31.6363  -99999.0  -99999.0  102.8015  -99999.0 
     4598.9468           -4573.8547            4598.8547       758641.68       8723130.06   33.7216  -99999.0  -99999.0  103.4817  -99999.0 
     4599.0992           -4574.0071            4599.0071       758641.68       8723130.06   41.1800   49.8725    1.9817  104.3445   12.3544 
     4599.2516           -4574.1594            4599.1594       758641.68       8723130.06   47.7608   59.7665    1.9712  105.4879   12.3730 
     4599.4040           -4574.3118            4599.3118       758641.68       8723130.06   53.6426   50.8699    1.8760  106.6091   12.4105 
     4599.5564           -4574.4642            4599.4642       758641.68       8723130.07   54.3038   43.4318    1.8620  107.5041   12.4299 
     4599.7088           -4574.6166            4599.6166       758641.69       8723130.07   56.0124   47.2653    1.8632  108.6478   12.4571 
     4599.8612           -4574.7689            4599.7689       758641.69       8723130.07   57.3609   44.9445    1.8677  109.8957   12.4729 
     4600.0136           -4574.9213            4599.9213       758641.69       8723130.07   59.1970   46.2137    1.8787  111.7125   12.5596 
     4600.1660           -4575.0737            4600.0737       758641.69       8723130.08   59.5195   46.7395    1.8845  113.0770   12.6602 
     4600.3184           -4575.2261            4600.2261       758641.69       8723130.08   60.1472   44.8953    1.8803  114.3681   12.6599 
     4600.4708           -4575.3784            4600.3784       758641.69       8723130.08   60.3315   43.9399    1.8701  115.7376   12.5654 
     4600.6232           -4575.5308            4600.5308       758641.70       8723130.08   59.9451   48.8775    1.8635  116.5945   12.5965 
     4600.7756           -4575.6832            4600.6832       758641.70       8723130.08   58.1367   49.8683    1.8630  117.2936   12.7685 
     4600.9280           -4575.8355            4600.8355       758641.70       8723130.09   56.2001   48.8749    1.8574  117.2997   13.0692 
     4601.0804           -4575.9879            4600.9879       758641.70       8723130.09   55.9759   50.2414    1.8455  116.8950   13.2658 
     4601.2328           -4576.1403            4601.1403       758641.70       8723130.09   58.1126   52.2993    1.8404  116.3191   13.1158 
     4601.3852           -4576.2927            4601.2927       758641.70       8723130.09   59.6312   60.6862    1.8403  115.8431   12.9589 
     4601.5376           -4576.4450            4601.4450       758641.71       8723130.10   59.6234   54.1165    1.8394  115.1494   13.2673 
     4601.6900           -4576.5974            4601.5974       758641.71       8723130.10   59.3531   49.2639    1.8407  114.0408   13.7291 
     4601.8424           -4576.7498            4601.7498       758641.71       8723130.10   58.5080   50.9825    1.8534  112.6845   13.9884 
     4601.9948           -4576.9022            4601.9022       758641.71       8723130.10   58.0735   49.8113    1.8643  111.4831   14.1102 
     4602.1472           -4577.0545            4602.0545       758641.71       8723130.11   60.1054   48.0767    1.8602  110.9365   13.9622 
