~VERSION INFORMATION                                                           
 VERS.           2.0: CWLS Log ASCII Standard - Version 2.0                    
 WRAP.            NO: One Line per Depth Step                                  
~WELL INFORMATION                                                              
#MNEM.UNIT              DATA            DESCRIPTION OF MNEMONIC                
#-----------            ----            -----------------------                
 STRT.M            2891.00              :Start Depth                           
 STOP.M            6549.51              :Stop Depth                            
 STEP.M             0.1524              :Step                                  
 NULL.              -99999.0            :Null Value                            
 COMP.     PETROLEO BRASILEIRO S/A      :Company                               
 ORIG.     SIGEO EXPORTACAO PERFIL      :Origem dos dados                      
 WELL.     1SES 0173  SE                :Well                                  
 FLD.                                   :Field                                 
 STAT.     SERGIPE                      :State                                 
 API.      901210520900                 :API Code                              
 UWI.      901210520900                 :API Code                              
 XCOORD.           758643.00            :Surface X                             
 YCOORD.          8723117.00            :Surface Y                             
 HZCS.           UTM                    :Horizontal Coordinate System          
 MC.               39 W                 :Meridiano Central                     
 LAT.             -11.541114            :Latitude                              
 LONG.            -36.628620            :Longitude                             
 GDAT.             SIRGAS2000           :Geodetic Datum                        
 EDF.M              25.00               :Elevation Derrick Floor               
 WDMS.M           2820.00               :Water Depth to Mean Sea Level         
~CURVE INFORMATION                                                             
 DEPT.M                                 :Measured Depth                        
 COTA.M                                 :Vertical Depth (without EKB)          
 TVD.M                                  :Vertical Depth                        
 CoordEW.                                :Coordinate East/West                 
 CoordNS.                                :Coordinate North/South               
 BRGR.gAPI                              :RAIOS GAMA (COMPOSICAO DE CURVAS CABO E/OU LWD)
 BRNEUT.%                               :POROSIDADE NEUTRONICA (COMPOSICAO DE CURVAS CABO E/OU LWD)
 BRDENS.g/cm3                           :DENSIDADE (COMPOSICAO DE CURVAS CABO E/OU LWD )
 BRDTP.us/ft                            :SONICO COMPRESSIONAL (COMPOSICAO DE CURVAS CABO E/OU LWD)
 BRCALI.in                              :CALIPER (COMPOSICAO DE CURVAS CABO E/OU LWD)
~ASCII LOG DATA                                                                
# ...
     3377.4608           -3352.4608            3377.4608       758642.04       8723118.18   57.0221  -99999.0  -99999.0  -99999.0  -99999.0 
     3377.6132           -3352.6132            3377.6132       758642.04       8723118.18   54.6248  -99999.0  -99999.0  -99999.0  -99999.0 
     3377.7656           -3352.7656            3377.7656       758642.04       8723118.18   55.1678  -99999.0  -99999.0  -99999.0  -99999.0 
     3377.9180           -3352.9180            3377.9180       758642.04       8723118.18   54.4177  -99999.0  -99999.0  -99999.0  -99999.0 
     3378.0704           -3353.0704            3378.0704       758642.04       8723118.18   53.8758  -99999.0  -99999.0  -99999.0  -99999.0 
     3378.2228           -3353.2228            3378.2228       758642.04       8723118.18   57.5055  -99999.0  -99999.0  -99999.0  -99999.0 
     3378.3752           -3353.3752            3378.3752       758642.04       8723118.18   58.9863  -99999.0  -99999.0  -99999.0  -99999.0 
     3378.5276           -3353.5276            3378.5276       758642.04       8723118.18   59.7158  -99999.0  -99999.0  -99999.0  -99999.0 
     3378.6800           -3353.6800            3378.6800       758642.04       8723118.18   59.4879  -99999.0  -99999.0  -99999.0  -99999.0 
     3378.8324           -3353.8324            3378.8324       758642.04       8723118.18   56.4089  -99999.0  -99999.0  -99999.0  -99999.0 
     3378.9848           -3353.9848            3378.9848       758642.04       8723118.18   53.3109  -99999.0  -99999.0  -99999.0  -99999.0 
     3379.1372           -3354.1372            3379.1372       758642.04       8723118.18   51.9757  -99999.0  -99999.0  -99999.0  -99999.0 
     3379.2896           -3354.2896            3379.2896       758642.04       8723118.18   51.6837  -99999.0  -99999.0  -99999.0  -99999.0 
     3379.4420           -3354.4420            3379.4420       758642.04       8723118.18   54.8247  -99999.0  -99999.0  -99999.0  -99999.0 
     3379.5944           -3354.5944            3379.5944       758642.04       8723118.18   48.0826  -99999.0  -99999.0  -99999.0  -99999.0 
     3379.7468           -3354.7468            3379.7468       758642.04       8723118.18   44.1266  -99999.0  -99999.0  -99999.0  -99999.0 
     3379.8992           -3354.8992            3379.8992       758642.04       8723118.18   45.0144  -99999.0  -99999.0  -99999.0  -99999.0 
     3380.0516           -3355.0516            3380.0516       758642.04       8723118.18   40.4651  -99999.0  -99999.0  -99999.0  -99999.0 
     3380.2040           -3355.2040            3380.2040       758642.04       8723118.18   37.0476  -99999.0  -99999.0  -99999.0  -99999.0 
     3380.3564           -3355.3564            3380.3564       758642.04       8723118.18   36.5590  -99999.0  -99999.0  -99999.0  -99999.0 
     3380.5088           -3355.5088            3380.5088       758642.04       8723118.18   38.8516  -99999.0  -99999.0  -99999.0  -99999.0 
     3380.6612           -3355.6612            3380.6612       758642.04       8723118.18   42.7446  -99999.0  -99999.0  -99999.0  -99999.0 
     3380.8136           -3355.8136            3380.8136       758642.04       8723118.18   43.1908  -99999.0  -99999.0  -99999.0  -99999.0 
     3380.9660           -3355.9660            3380.9660       758642.04       8723118.18   46.1099  -99999.0  -99999.0  -99999.0  -99999.0 
     3381.1184           -3356.1184            3381.1184       758642.04       8723118.18   51.8644  -99999.0  -99999.0  -99999.0  -99999.0 
     3381.2708           -3356.2708            3381.2708       758642.04       8723118.18   57.4399  -99999.0  -99999.0  -99999.0  -99999.0 
     3381.4232           -3356.4232            3381.4232       758642.04       8723118.18   57.9736  -99999.0  -99999.0  -99999.0  -99999.0 
     3381.5756           -3356.5756            3381.5756       758642.03       8723118.18   56.4692  -99999.0  -99999.0  -99999.0  -99999.0 
     3381.7280           -3356.7280            3381.7280       758642.03       8723118.18   58.3214  -99999.0  -99999.0  -99999.0  -99999.0 
     3381.8804           -3356.8804            3381.8804       758642.03       8723118.18   56.4801  -99999.0  -99999.0  -99999.0  -99999.0 
     3382.0328           -3357.0328            3382.0328       758642.03       8723118.18   55.2706  -99999.0  -99999.0  -99999.0  -99999.0 
     3382.1852           -3357.1852            3382.1852       758642.03       8723118.18   58.0063  -99999.0  -99999.0  -99999.0  -99999.0 
     3382.3376           -3357.3376            3382.3376       758642.03       8723118.18   59.3476  -99999.0  -99999.0  -99999.0  -99999.0 
     3382.4900           -3357.4900            3382.4900       758642.03       8723118.18   58.3105  -99999.0  -99999.0  -99999.0  -99999.0 
     3382.6424           -3357.6424            3382.6424       758642.03       8723118.18   55.2403  -99999.0  -99999.0  -99999.0  -99999.0 
     3382.7948           -3357.7948            3382.7948       758642.03       8723118.18   54.5719  -99999.0  -99999.0  -99999.0  -99999.0 
     3382.9472           -3357.9472            3382.9472       758642.03       8723118.18   55.8170  -99999.0  -99999.0  -99999.0  -99999.0 
     3383.0996           -3358.0996            3383.0996       758642.03       8723118.18   57.0264  -99999.0  -99999.0  -99999.0  -99999.0 
     3383.2520           -3358.2520            3383.2520       758642.03       8723118.18   57.9165  -99999.0  -99999.0  -99999.0  -99999.0 
     3383.4044           -3358.4044            3383.4044       758642.03       8723118.18   59.0787  -99999.0  -99999.0  -99999.0  -99999.0 
     3383.5568           -3358.5568            3383.5568       758642.03       8723118.18   59.6976  -99999.0  -99999.0  -99999.0  -99999.0 
     3383.7092           -3358.7092            3383.7092       758642.03       8723118.18   61.9909  -99999.0  -99999.0  -99999.0  -99999.0 
     3383.8616           -3358.8616            3383.8616       758642.03       8723118.18   59.6571  -99999.0  -99999.0  -99999.0  -99999.0 
     3384.0140           -3359.0140            3384.0140       758642.03       8723118.18   58.5755  -99999.0  -99999.0  -99999.0  -99999.0 
     3384.1664           -3359.1664            3384.1664       758642.03       8723118.18   56.1050  -99999.0  -99999.0  -99999.0  -99999.0 
     3384.3188           -3359.3188            3384.3188       758642.03       8723118.18   55.6509  -99999.0  -99999.0  -99999.0  -99999.0 
     3384.4712           -3359.4712            3384.4712       758642.03       8723118.18   57.0632  -99999.0  -99999.0  -99999.0  -99999.0 
     3384.6236           -3359.6236            3384.6236       758642.03       8723118.18   57.5276  -99999.0  -99999.0  -99999.0  -99999.0 
     3384.7760           -3359.7760            3384.7760       758642.03       8723118.18   60.4615  -99999.0  -99999.0  -99999.0  -99999.0 
     3384.9284           -3359.9284            3384.9284       758642.03       8723118.18   59.6045  -99999.0  -99999.0  -99999.0  -99999.0 
     3385.0808           -3360.0808            3385.0808       758642.03       8723118.18   59.4838  -99999.0  -99999.0  -99999.0  -99999.0 
     3385.2332           -3360.2332            3385.2332       758642.03       8723118.18   60.1720  -99999.0  -99999.0  -99999.0  -99999.0 
     3385.3856           -3360.3856            3385.3856       758642.03       8723118.18   59.0287  -99999.0  -99999.0  -99999.0  -99999.0 
     3385.5380           -3360.5380            3385.5380       758642.03       8723118.18   60.4109  -99999.0  -99999.0  -99999.0  -99999.0 
     3385.6904           -3360.6904            3385.6904       758642.03       8723118.18   57.4509  -99999.0  -99999.0  -99999.0  -99999.0 
     3385.8428           -3360.8428            3385.8428       758642.03       8723118.18   61.6644  -99999.0  -99999.0  -99999.0  -99999.0 
     3385.9952           -3360.9952            3385.9952       758642.03       8723118.18   65.1013  -99999.0  -99999.0  -99999.0  -99999.0 
