~VERSION INFORMATION                                                           
 VERS.           2.0: CWLS Log ASCII Standard - Version 2.0                    
 WRAP.            NO: One Line per Depth Step                                  
~WELL INFORMATION                                                              
#MNEM.UNIT              DATA            DESCRIPTION OF MNEMONIC                
#-----------            ----            -----------------------                
 STRT.M            2891.00              :Start Depth                           
 STOP.M            6549.51              :Stop Depth                            
 STEP.M             0.1524              :Step                                  
 NULL.              -99999.0            :Null Value                            
 COMP.     PETROLEO BRASILEIRO S/A      :Company                               
 ORIG.     SIGEO EXPORTACAO PERFIL      :Origem dos dados                      
 WELL.     1SES 0173  SE                :Well                                  
 FLD.                                   :Field                                 
 STAT.     SERGIPE                      :State                                 
 API.      901210520900                 :API Code                              
 UWI.      901210520900                 :API Code                              
 XCOORD.           758643.00            :Surface X                             
 YCOORD.          8723117.00            :Surface Y                             
 HZCS.           UTM                    :Horizontal Coordinate System          
 MC.               39 W                 :Meridiano Central                     
 LAT.             -11.541114            :Latitude                              
 LONG.            -36.628620            :Longitude                             
 GDAT.             SIRGAS2000           :Geodetic Datum                        
 EDF.M              25.00               :Elevation Derrick Floor               
 WDMS.M           2820.00               :Water Depth to Mean Sea Level         
~CURVE INFORMATION                                                             
 DEPT.M                                 :Measured Depth                        
 COTA.M                                 :Vertical Depth (without EKB)          
 TVD.M                                  :Vertical Depth                        
 CoordEW.                                :Coordinate East/West                 
 CoordNS.                                :Coordinate North/South               
 BRGR.gAPI                              :RAIOS GAMA (COMPOSICAO DE CURVAS CABO E/OU LWD)
 BRNEUT.%                               :POROSIDADE NEUTRONICA (COMPOSICAO DE CURVAS CABO E/OU LWD)
 BRDENS.g/cm3                           :DENSIDADE (COMPOSICAO DE CURVAS CABO E/OU LWD )
 BRDTP.us/ft                            :SONICO COMPRESSIONAL (COMPOSICAO DE CURVAS CABO E/OU LWD)
 BRCALI.in                              :CALIPER (COMPOSICAO DE CURVAS CABO E/OU LWD)
~ASCII LOG DATA                                                                
# ...
     5809.7648           -5783.9407            5808.9407       758661.44       8723165.64   87.8402   16.9925    2.6140   79.9936    9.0521 
     5809.9172           -5784.0931            5809.0931       758661.44       8723165.64   85.8558   15.5773    2.6127   77.7960    9.0583 
     5810.0696           -5784.2454            5809.2454       758661.44       8723165.65   79.0025   11.5178    2.6217   75.0967    9.0137 
     5810.2220           -5784.3977            5809.3977       758661.44       8723165.65   67.9322    8.4279    2.6317   72.2074    8.8458 
     5810.3744           -5784.5501            5809.5501       758661.44       8723165.65   55.2001    7.6141    2.6381   70.4480    8.6454 
     5810.5268           -5784.7024            5809.7024       758661.45       8723165.66   50.6991    7.5366    2.6426   69.4636    8.5942 
     5810.6792           -5784.8548            5809.8548       758661.45       8723165.66   52.2566    7.8856    2.6533   70.4189    8.6042 
     5810.8316           -5785.0071            5810.0071       758661.45       8723165.66   57.1283    8.5357    2.6530   72.3701    8.6013 
     5810.9840           -5785.1595            5810.1595       758661.45       8723165.67   65.2952   11.5980    2.6304   74.8393    8.6190 
     5811.1364           -5785.3118            5810.3118       758661.45       8723165.67   68.7089   14.0591    2.6163   77.2728    8.6366 
     5811.2888           -5785.4642            5810.4642       758661.45       8723165.67   71.8080   15.0561    2.6164   78.4924    8.6475 
     5811.4412           -5785.6165            5810.6165       758661.46       8723165.68   74.8165   15.3505    2.6241   79.0938    8.6596 
     5811.5936           -5785.7689            5810.7689       758661.46       8723165.68   76.1403   15.0246    2.6363   78.4735    8.6674 
     5811.7460           -5785.9212            5810.9212       758661.46       8723165.69   70.9505   13.9750    2.6750   77.3625    8.6696 
     5811.8984           -5786.0735            5811.0735       758661.46       8723165.69   63.5613   12.8174    2.6980   76.7831    8.6698 
     5812.0508           -5786.2259            5811.2259       758661.46       8723165.69   54.9517   10.5436    2.6958   76.8988    8.6834 
     5812.2032           -5786.3782            5811.3782       758661.46       8723165.70   56.2032   10.9549    2.6736   77.4367    8.6815 
     5812.3556           -5786.5306            5811.5306       758661.47       8723165.70   64.9420   12.9640    2.6377   77.8675    8.7109 
     5812.5080           -5786.6829            5811.6829       758661.47       8723165.70   71.1339   14.5166    2.6218   78.0045    8.7438 
     5812.6604           -5786.8353            5811.8353       758661.47       8723165.71   78.4879   15.2861    2.6099   77.7154    8.7466 
     5812.8128           -5786.9876            5811.9876       758661.47       8723165.71   78.2239   13.9928    2.6121   77.3080    8.7060 
     5812.9652           -5787.1400            5812.1400       758661.47       8723165.72   69.3692   12.1809    2.6237   77.4839    8.5774 
     5813.1176           -5787.2923            5812.2923       758661.48       8723165.72   64.1971   10.5037    2.6295   78.4036    8.5766 
     5813.2700           -5787.4447            5812.4447       758661.48       8723165.72   67.5159    9.7072    2.6294   80.3706    8.5966 
     5813.4224           -5787.5970            5812.5970       758661.48       8723165.73   73.2281   10.5865    2.6244   82.3741    8.6075 
     5813.5748           -5787.7493            5812.7493       758661.48       8723165.73   75.7710   12.4892    2.6199   83.2253    8.6245 
     5813.7272           -5787.9017            5812.9017       758661.48       8723165.73   78.7540   14.3237    2.6209   83.5600    8.6306 
     5813.8796           -5788.0540            5813.0540       758661.48       8723165.74   89.3628   16.6096    2.6149   82.4280    8.6368 
     5814.0320           -5788.2064            5813.2064       758661.49       8723165.74   97.1695   18.3144    2.6058   80.3280    8.6465 
     5814.1844           -5788.3587            5813.3587       758661.49       8723165.75  104.3521   17.5057    2.5998   77.1703    8.6656 
     5814.3368           -5788.5111            5813.5111       758661.49       8723165.75  101.7739   15.7431    2.6013   73.5269    8.6329 
     5814.4892           -5788.6634            5813.6634       758661.49       8723165.75   71.9838   11.2686    2.6171   70.8054    8.6014 
     5814.6416           -5788.8158            5813.8158       758661.49       8723165.76   49.5592    8.8092    2.6320   68.7492    8.5775 
     5814.7940           -5788.9681            5813.9681       758661.49       8723165.76   37.5218    7.5854    2.6428   68.8087    8.5688 
     5814.9464           -5789.1204            5814.1204       758661.50       8723165.76   34.3487    7.3211    2.6531   69.9180    8.5612 
     5815.0988           -5789.2728            5814.2728       758661.50       8723165.77   37.0488    8.0479    2.6583   71.0184    8.5572 
     5815.2512           -5789.4251            5814.4251       758661.50       8723165.77   41.8464    9.0587    2.6666   72.0906    8.5683 
     5815.4036           -5789.5775            5814.5775       758661.50       8723165.78   44.1542    9.9793    2.6653   73.4707    8.5850 
     5815.5560           -5789.7298            5814.7298       758661.50       8723165.78   46.7316   11.2111    2.6458   74.5243    8.6113 
     5815.7084           -5789.8822            5814.8822       758661.50       8723165.78   50.2870   12.5138    2.6400   75.3911    8.6266 
     5815.8608           -5790.0345            5815.0345       758661.51       8723165.79   64.8971   13.4454    2.6468   75.7061    8.6530 
     5816.0132           -5790.1868            5815.1868       758661.51       8723165.79   69.9506   13.0324    2.6381   75.6813    8.6663 
     5816.1656           -5790.3392            5815.3392       758661.51       8723165.79   66.0049   13.0230    2.6179   75.0860    8.6793 
     5816.3180           -5790.4915            5815.4915       758661.51       8723165.80   65.2992   12.9811    2.6164   74.5015    8.6874 
     5816.4704           -5790.6439            5815.6439       758661.51       8723165.80   66.4008   12.8671    2.6198   74.4409    8.6924 
     5816.6228           -5790.7962            5815.7962       758661.51       8723165.81   65.0750   12.4159    2.6175   74.5173    8.6938 
     5816.7752           -5790.9486            5815.9486       758661.52       8723165.81   63.3859   12.0740    2.6180   74.4994    8.6851 
     5816.9276           -5791.1009            5816.1009       758661.52       8723165.81   59.9399   12.0136    2.6247   74.3507    8.6781 
     5817.0800           -5791.2533            5816.2533       758661.52       8723165.82   57.0241   11.6400    2.6272   73.8618    8.6529 
     5817.2324           -5791.4056            5816.4056       758661.52       8723165.82   61.9742   12.3969    2.6211   72.8120    8.6391 
     5817.3848           -5791.5579            5816.5579       758661.52       8723165.82   72.6914   12.9528    2.6138   70.9362    8.6326 
     5817.5372           -5791.7103            5816.7103       758661.52       8723165.83   71.8238   10.6404    2.6149   68.7638    8.6369 
     5817.6896           -5791.8626            5816.8626       758661.53       8723165.83   57.0943    8.6690    2.6294   67.3067    8.6435 
     5817.8420           -5792.0150            5817.0150       758661.53       8723165.84   48.9110    7.9780    2.6432   66.4021    8.6442 
     5817.9944           -5792.1673            5817.1673       758661.53       8723165.84   44.2368    7.4994    2.6529   66.0888    8.6404 
     5818.1468           -5792.3197            5817.3197       758661.53       8723165.84   39.6191    7.0467    2.6799   66.0419    8.6519 
     5818.2992           -5792.4720            5817.4720       758661.53       8723165.85   40.5730    7.0834    2.6969   66.5058    8.6565 
