~VERSION INFORMATION                                                           
 VERS.           2.0: CWLS Log ASCII Standard - Version 2.0                    
 WRAP.            NO: One Line per Depth Step                                  
~WELL INFORMATION                                                              
#MNEM.UNIT              DATA            DESCRIPTION OF MNEMONIC                
#-----------            ----            -----------------------                
 STRT.M            2891.00              :Start Depth                           
 STOP.M            6549.51              :Stop Depth                            
 STEP.M             0.1524              :Step                                  
 NULL.              -99999.0            :Null Value                            
 COMP.     PETROLEO BRASILEIRO S/A      :Company                               
 ORIG.     SIGEO EXPORTACAO PERFIL      :Origem dos dados                      
 WELL.     1SES 0173  SE                :Well                                  
 FLD.                                   :Field                                 
 STAT.     SERGIPE                      :State                                 
 API.      901210520900                 :API Code                              
 UWI.      901210520900                 :API Code                              
 XCOORD.           758643.00            :Surface X                             
 YCOORD.          8723117.00            :Surface Y                             
 HZCS.           UTM                    :Horizontal Coordinate System          
 MC.               39 W                 :Meridiano Central                     
 LAT.             -11.541114            :Latitude                              
 LONG.            -36.628620            :Longitude                             
 GDAT.             SIRGAS2000           :Geodetic Datum                        
 EDF.M              25.00               :Elevation Derrick Floor               
 WDMS.M           2820.00               :Water Depth to Mean Sea Level         
~CURVE INFORMATION                                                             
 DEPT.M                                 :Measured Depth                        
 COTA.M                                 :Vertical Depth (without EKB)          
 TVD.M                                  :Vertical Depth                        
 CoordEW.                                :Coordinate East/West                 
 CoordNS.                                :Coordinate North/South               
 BRGR.gAPI                              :RAIOS GAMA (COMPOSICAO DE CURVAS CABO E/OU LWD)
 BRNEUT.%                               :POROSIDADE NEUTRONICA (COMPOSICAO DE CURVAS CABO E/OU LWD)
 BRDENS.g/cm3                           :DENSIDADE (COMPOSICAO DE CURVAS CABO E/OU LWD )
 BRDTP.us/ft                            :SONICO COMPRESSIONAL (COMPOSICAO DE CURVAS CABO E/OU LWD)
 BRCALI.in                              :CALIPER (COMPOSICAO DE CURVAS CABO E/OU LWD)
~ASCII LOG DATA                                                                
# ...
     5323.3040           -5297.6700            5322.6700       758653.31       8723154.83   58.7868   15.6761    2.5649   77.5846    8.5924 
     5323.4564           -5297.8224            5322.8224       758653.31       8723154.84   52.8415   14.4282    2.5635   76.4633    8.5931 
     5323.6088           -5297.9747            5322.9747       758653.31       8723154.84   50.3098   13.0389    2.5707   75.2063    8.5957 
     5323.7612           -5298.1270            5323.1270       758653.32       8723154.84   45.6421   11.1693    2.5894   74.7422    8.5911 
     5323.9136           -5298.2793            5323.2793       758653.32       8723154.85   41.4322   11.2801    2.6073   74.8445    8.5937 
     5324.0660           -5298.4316            5323.4316       758653.32       8723154.85   39.1697   12.0388    2.6308   75.7938    8.5950 
     5324.2184           -5298.5840            5323.5840       758653.32       8723154.86   41.5880   11.5212    2.6352   77.2531    8.5966 
     5324.3708           -5298.7363            5323.7363       758653.33       8723154.86   50.0227   12.1654    2.6309   79.5381    8.5984 
     5324.5232           -5298.8886            5323.8886       758653.33       8723154.86   57.0486   14.3659    2.6204   82.2563    8.5964 
     5324.6756           -5299.0409            5324.0409       758653.33       8723154.87   61.1125   15.4505    2.6033   84.5992    8.5890 
     5324.8280           -5299.1933            5324.1933       758653.33       8723154.87   63.1169   16.8975    2.5965   86.8881    8.5850 
     5324.9804           -5299.3456            5324.3456       758653.34       8723154.88   74.8356   19.6793    2.5693   88.2794    8.5857 
     5325.1328           -5299.4979            5324.4979       758653.34       8723154.88   86.0215   21.3302    2.5427   88.6913    8.5916 
     5325.2852           -5299.6502            5324.6502       758653.34       8723154.88   86.6923   19.0882    2.5467   87.2026    8.5756 
     5325.4376           -5299.8025            5324.8025       758653.35       8723154.89   76.0832   16.7476    2.5609   84.8269    8.5710 
     5325.5900           -5299.9549            5324.9549       758653.35       8723154.89   58.5649   14.7426    2.5688   81.9742    8.5639 
     5325.7424           -5300.1072            5325.1072       758653.35       8723154.90   53.6233   13.8892    2.5757   79.6539    8.5736 
     5325.8948           -5300.2595            5325.2595       758653.35       8723154.90   50.2103   13.1082    2.5849   79.1145    8.5578 
     5326.0472           -5300.4118            5325.4118       758653.36       8723154.90   45.3350   13.8201    2.5879   79.5983    8.5582 
     5326.1996           -5300.5642            5325.5642       758653.36       8723154.91   45.7792   14.7990    2.5899   80.7754    8.5652 
     5326.3520           -5300.7165            5325.7165       758653.36       8723154.91   52.2067   14.8418    2.5955   82.8881    8.5645 
     5326.5044           -5300.8688            5325.8688       758653.36       8723154.92   55.8284   15.1223    2.5985   85.2150    8.5650 
     5326.6568           -5301.0211            5326.0211       758653.37       8723154.92   61.7689   16.5770    2.5957   86.5796    8.5705 
     5326.8092           -5301.1734            5326.1734       758653.37       8723154.92   67.2644   18.1102    2.5916   87.2901    8.5734 
     5326.9616           -5301.3258            5326.3258       758653.37       8723154.93   74.5273   20.0638    2.5929   86.9972    8.5848 
     5327.1140           -5301.4781            5326.4781       758653.38       8723154.93   78.1941   18.7330    2.5950   86.4055    8.5649 
     5327.2664           -5301.6304            5326.6304       758653.38       8723154.94   77.8489   13.6607    2.5981   86.6689    8.5639 
     5327.4188           -5301.7827            5326.7827       758653.38       8723154.94   69.3760   11.4755    2.6025   87.5170    8.5665 
     5327.5712           -5301.9351            5326.9351       758653.38       8723154.94   54.7137   12.3781    2.5992   89.8970    8.5684 
     5327.7236           -5302.0874            5327.0874       758653.39       8723154.95   51.2318   14.2694    2.5914   93.1850    8.5649 
     5327.8760           -5302.2397            5327.2397       758653.39       8723154.95   67.5882   18.0459    2.5788   95.6139    8.5687 
     5328.0284           -5302.3920            5327.3920       758653.39       8723154.96   84.8039   21.6999    2.5558   97.4669    8.5731 
     5328.1808           -5302.5443            5327.5443       758653.39       8723154.96   93.5171   24.1223    2.5205   98.0046    8.5596 
     5328.3332           -5302.6967            5327.6967       758653.40       8723154.97   89.1400   22.8523    2.5155   97.9753    8.5516 
     5328.4856           -5302.8490            5327.8490       758653.40       8723154.97   81.1919   21.6206    2.5236   97.2185    8.5514 
     5328.6380           -5303.0013            5328.0013       758653.40       8723154.97   80.5167   21.2871    2.5213   96.2836    8.5800 
     5328.7904           -5303.1536            5328.1536       758653.41       8723154.98   89.1548   22.2393    2.5256   95.3502    8.5585 
     5328.9428           -5303.3059            5328.3059       758653.41       8723154.98   93.9419   23.2718    2.5369   94.2028    8.5677 
     5329.0952           -5303.4583            5328.4583       758653.41       8723154.99   91.8349   22.3106    2.5405   92.6444    8.5721 
     5329.2476           -5303.6106            5328.6106       758653.41       8723154.99   82.7208   20.5031    2.5417   90.4190    8.5785 
     5329.4000           -5303.7629            5328.7629       758653.42       8723154.99   75.9223   20.3296    2.5577   88.8715    8.5753 
     5329.5524           -5303.9152            5328.9152       758653.42       8723155.00   63.1786   18.0061    2.5928   87.9895    8.5684 
     5329.7048           -5304.0675            5329.0675       758653.42       8723155.00   60.5275   16.4275    2.6031   87.3422    8.5701 
     5329.8572           -5304.2199            5329.2199       758653.42       8723155.01   62.5980   14.7750    2.5921   87.5837    8.5769 
     5330.0096           -5304.3722            5329.3722       758653.43       8723155.01   63.6421   15.3054    2.5836   88.1742    8.5847 
     5330.1620           -5304.5245            5329.5245       758653.43       8723155.01   64.1907   17.3275    2.5862   88.5111    8.6293 
     5330.3144           -5304.6768            5329.6768       758653.43       8723155.02   66.5779   17.9930    2.5738   88.5214    8.6348 
     5330.4668           -5304.8291            5329.8291       758653.44       8723155.02   77.6909   19.3400    2.5536   87.6446    8.6427 
     5330.6192           -5304.9815            5329.9815       758653.44       8723155.03   86.3300   21.3209    2.5664   86.2542    8.6348 
     5330.7716           -5305.1338            5330.1338       758653.44       8723155.03   85.7984   20.9276    2.5818   83.9431    8.6369 
     5330.9240           -5305.2861            5330.2861       758653.44       8723155.03   77.5735   18.6952    2.5786   81.4727    8.6348 
     5331.0764           -5305.4383            5330.4383       758653.45       8723155.04   61.0458   16.0393    2.5761   81.1741    8.6224 
     5331.2288           -5305.5904            5330.5904       758653.45       8723155.04   49.8666   13.5645    2.5805   82.1298    8.6221 
     5331.3812           -5305.7425            5330.7425       758653.46       8723155.05   43.2022   13.3057    2.5888   83.8686    8.6199 
     5331.5336           -5305.8946            5330.8946       758653.46       8723155.05   45.3192   13.1635    2.5899   85.0113    8.6193 
     5331.6860           -5306.0466            5331.0466       758653.46       8723155.05   52.6189   13.0816    2.5790   85.6569    8.6105 
     5331.8384           -5306.1987            5331.1987       758653.47       8723155.06   56.9474   14.1207    2.5704   86.4198    8.6104 
