~VERSION INFORMATION                                                           
 VERS.           2.0: CWLS Log ASCII Standard - Version 2.0                    
 WRAP.            NO: One Line per Depth Step                                  
~WELL INFORMATION                                                              
#MNEM.UNIT              DATA            DESCRIPTION OF MNEMONIC                
#-----------            ----            -----------------------                
 STRT.M            2891.00              :Start Depth                           
 STOP.M            6549.51              :Stop Depth                            
 STEP.M             0.1524              :Step                                  
 NULL.              -99999.0            :Null Value                            
 COMP.     PETROLEO BRASILEIRO S/A      :Company                               
 ORIG.     SIGEO EXPORTACAO PERFIL      :Origem dos dados                      
 WELL.     1SES 0173  SE                :Well                                  
 FLD.                                   :Field                                 
 STAT.     SERGIPE                      :State                                 
 API.      901210520900                 :API Code                              
 UWI.      901210520900                 :API Code                              
 XCOORD.           758643.00            :Surface X                             
 YCOORD.          8723117.00            :Surface Y                             
 HZCS.           UTM                    :Horizontal Coordinate System          
 MC.               39 W                 :Meridiano Central                     
 LAT.             -11.541114            :Latitude                              
 LONG.            -36.628620            :Longitude                             
 GDAT.             SIRGAS2000           :Geodetic Datum                        
 EDF.M              25.00               :Elevation Derrick Floor               
 WDMS.M           2820.00               :Water Depth to Mean Sea Level         
~CURVE INFORMATION                                                             
 DEPT.M                                 :Measured Depth                        
 COTA.M                                 :Vertical Depth (without EKB)          
 TVD.M                                  :Vertical Depth                        
 CoordEW.                                :Coordinate East/West                 
 CoordNS.                                :Coordinate North/South               
 BRGR.gAPI                              :RAIOS GAMA (COMPOSICAO DE CURVAS CABO E/OU LWD)
 BRNEUT.%                               :POROSIDADE NEUTRONICA (COMPOSICAO DE CURVAS CABO E/OU LWD)
 BRDENS.g/cm3                           :DENSIDADE (COMPOSICAO DE CURVAS CABO E/OU LWD )
 BRDTP.us/ft                            :SONICO COMPRESSIONAL (COMPOSICAO DE CURVAS CABO E/OU LWD)
 BRCALI.in                              :CALIPER (COMPOSICAO DE CURVAS CABO E/OU LWD)
~ASCII LOG DATA                                                                
# ...
     4836.8432           -4811.6531            4836.6531       758644.36       8723136.54   94.3894   26.8346    2.4617  106.2085   12.0797 
     4836.9956           -4811.8054            4836.8054       758644.36       8723136.55   89.8704   26.3679    2.4658  105.9178   12.0769 
     4837.1480           -4811.9577            4836.9577       758644.36       8723136.55   90.0876   26.3490    2.4667  105.7149   12.0747 
     4837.3004           -4812.1100            4837.1100       758644.36       8723136.56   93.6009   27.1494    2.4681  105.5803   12.0788 
     4837.4528           -4812.2623            4837.2623       758644.36       8723136.56   91.2870   26.4464    2.4732  105.6140   12.0857 
     4837.6052           -4812.4146            4837.4146       758644.37       8723136.57   86.5294   27.4448    2.4787  105.7029   12.0929 
     4837.7576           -4812.5669            4837.5669       758644.37       8723136.57   88.8732   27.1489    2.4868  105.8538   12.0885 
     4837.9100           -4812.7192            4837.7192       758644.37       8723136.58   92.1794   26.9429    2.5066  106.0161   12.0787 
     4838.0624           -4812.8715            4837.8715       758644.37       8723136.59   91.2221   27.7428    2.5092  106.2659   12.0764 
     4838.2148           -4813.0238            4838.0238       758644.37       8723136.59   90.0702   28.2012    2.5084  106.6614   12.0773 
     4838.3672           -4813.1760            4838.1760       758644.38       8723136.60   90.0261   27.1419    2.5093  106.8893   12.0779 
     4838.5196           -4813.3283            4838.3283       758644.38       8723136.60   91.4984   26.1126    2.5028  106.9176   12.0769 
     4838.6720           -4813.4806            4838.4806       758644.38       8723136.61   93.7358   26.5231    2.4862  106.9027   12.0758 
     4838.8244           -4813.6329            4838.6329       758644.38       8723136.61   95.5848   27.9322    2.4764  106.4621   12.0753 
     4838.9768           -4813.7852            4838.7852       758644.39       8723136.62   96.2924   28.4332    2.4696  105.7235   12.0748 
     4839.1292           -4813.9375            4838.9375       758644.39       8723136.62   96.2099   27.1498    2.4762  105.1278   12.0731 
     4839.2816           -4814.0898            4839.0898       758644.39       8723136.63   96.2288   25.6447    2.4936  104.6143   12.0728 
     4839.4340           -4814.2421            4839.2421       758644.39       8723136.63   94.7841   26.3906    2.5082  104.3733   12.0739 
     4839.5864           -4814.3944            4839.3944       758644.39       8723136.64   91.2271   27.2658    2.5182  104.2201   12.0759 
     4839.7388           -4814.5467            4839.5467       758644.40       8723136.64   91.1158   26.6942    2.5051  104.2798   12.0769 
     4839.8912           -4814.6990            4839.6990       758644.40       8723136.65   91.6514   27.7739    2.4850  104.4733   12.0772 
     4840.0436           -4814.8513            4839.8513       758644.40       8723136.65   90.6764   27.9928    2.4824  104.7355   12.0772 
     4840.1960           -4815.0036            4840.0036       758644.40       8723136.66   89.4496   27.2986    2.4844  104.9746   12.0777 
     4840.3484           -4815.1558            4840.1558       758644.41       8723136.66   89.1183   25.7556    2.4813  105.1795   12.0781 
     4840.5008           -4815.3081            4840.3081       758644.41       8723136.67   91.3384   24.6556    2.4825  105.4331   12.0781 
     4840.6532           -4815.4604            4840.4604       758644.41       8723136.68   94.1541   25.9626    2.4847  105.6406   12.0781 
     4840.8056           -4815.6127            4840.6127       758644.41       8723136.68   94.8275   27.8510    2.4825  105.6917   12.0791 
     4840.9580           -4815.7650            4840.7650       758644.41       8723136.69   95.7927   27.9836    2.4832  105.5042   12.0798 
     4841.1104           -4815.9173            4840.9173       758644.42       8723136.69   98.2852   27.9123    2.4930  105.3199   12.0791 
     4841.2628           -4816.0696            4841.0696       758644.42       8723136.70   95.9322   26.8755    2.5006  104.9496   12.0776 
     4841.4152           -4816.2219            4841.2219       758644.42       8723136.70   93.3552   26.6450    2.5055  104.4766   12.0745 
     4841.5676           -4816.3742            4841.3742       758644.42       8723136.71   94.4286   27.0837    2.5050  104.3083   12.0737 
     4841.7200           -4816.5265            4841.5265       758644.42       8723136.71   94.0934   26.5305    2.5088  104.3554   12.0756 
     4841.8724           -4816.6788            4841.6788       758644.43       8723136.72   93.9043   25.4134    2.5127  104.4698   12.0767 
     4842.0248           -4816.8311            4841.8311       758644.43       8723136.72   94.9513   25.8770    2.5137  104.7175   12.0767 
     4842.1772           -4816.9834            4841.9834       758644.43       8723136.73   97.0193   26.0605    2.4996  105.0361   12.0758 
     4842.3296           -4817.1356            4842.1356       758644.43       8723136.73   97.5892   25.5923    2.4820  105.1459   12.0763 
     4842.4820           -4817.2879            4842.2879       758644.44       8723136.74   97.0845   26.5990    2.4742  105.1362   12.0779 
     4842.6344           -4817.4402            4842.4402       758644.44       8723136.74   97.8304   27.1222    2.4821  104.9161   12.0794 
     4842.7868           -4817.5925            4842.5925       758644.44       8723136.75   98.0344   25.7220    2.4939  104.6185   12.0817 
     4842.9392           -4817.7448            4842.7448       758644.44       8723136.75   93.2294   26.1373    2.4971  104.3919   12.0820 
     4843.0916           -4817.8971            4842.8971       758644.44       8723136.76   87.7375   25.7309    2.4966  104.2685   12.0798 
     4843.2440           -4818.0494            4843.0494       758644.45       8723136.77   89.1982   25.3905    2.5057  104.3954   12.0769 
     4843.3964           -4818.2017            4843.2017       758644.45       8723136.77   91.7809   25.4342    2.5149  104.5947   12.0755 
     4843.5488           -4818.3540            4843.3540       758644.45       8723136.78   93.0294   26.6938    2.5020  104.8187   12.0738 
     4843.7012           -4818.5063            4843.5063       758644.45       8723136.78   94.5712   28.4082    2.4877  105.0172   12.0714 
     4843.8536           -4818.6586            4843.6586       758644.46       8723136.79   93.8420   28.2218    2.4878  104.9379   12.0698 
     4844.0060           -4818.8109            4843.8109       758644.46       8723136.79   92.9193   25.6799    2.4789  104.7271   12.0694 
     4844.1584           -4818.9631            4843.9631       758644.46       8723136.80   93.6488   25.4995    2.4684  104.4548   12.0708 
     4844.3108           -4819.1154            4844.1154       758644.46       8723136.80   92.9726   28.1793    2.4702  104.1915   12.0723 
     4844.4632           -4819.2677            4844.2677       758644.46       8723136.81   92.0975   27.3463    2.4748  104.0811   12.0732 
     4844.6156           -4819.4200            4844.4200       758644.47       8723136.81   90.0984   27.6399    2.4805  104.1581   12.0747 
     4844.7680           -4819.5723            4844.5723       758644.47       8723136.82   90.1169   26.6143    2.4841  104.4230   12.0769 
     4844.9204           -4819.7246            4844.7246       758644.47       8723136.82   92.9067   26.7605    2.4771  104.8113   12.0790 
     4845.0728           -4819.8766            4844.8766       758644.47       8723136.83   93.3677   27.5778    2.4735  105.2664   12.0793 
     4845.2252           -4820.0284            4845.0284       758644.47       8723136.83   92.0325   27.9822    2.4807  105.4372   12.0784 
     4845.3776           -4820.1802            4845.1802       758644.47       8723136.84   91.8754   26.5528    2.4829  105.3884   12.0782 
