~VERSION INFORMATION                                                           
 VERS.           2.0: CWLS Log ASCII Standard - Version 2.0                    
 WRAP.            NO: One Line per Depth Step                                  
~WELL INFORMATION                                                              
#MNEM.UNIT              DATA            DESCRIPTION OF MNEMONIC                
#-----------            ----            -----------------------                
 STRT.M            2891.00              :Start Depth                           
 STOP.M            6549.51              :Stop Depth                            
 STEP.M             0.1524              :Step                                  
 NULL.              -99999.0            :Null Value                            
 COMP.     PETROLEO BRASILEIRO S/A      :Company                               
 ORIG.     SIGEO EXPORTACAO PERFIL      :Origem dos dados                      
 WELL.     1SES 0173  SE                :Well                                  
 FLD.                                   :Field                                 
 STAT.     SERGIPE                      :State                                 
 API.      901210520900                 :API Code                              
 UWI.      901210520900                 :API Code                              
 XCOORD.           758643.00            :Surface X                             
 YCOORD.          8723117.00            :Surface Y                             
 HZCS.           UTM                    :Horizontal Coordinate System          
 MC.               39 W                 :Meridiano Central                     
 LAT.             -11.541114            :Latitude                              
 LONG.            -36.628620            :Longitude                             
 GDAT.             SIRGAS2000           :Geodetic Datum                        
 EDF.M              25.00               :Elevation Derrick Floor               
 WDMS.M           2820.00               :Water Depth to Mean Sea Level         
~CURVE INFORMATION                                                             
 DEPT.M                                 :Measured Depth                        
 COTA.M                                 :Vertical Depth (without EKB)          
 TVD.M                                  :Vertical Depth                        
 CoordEW.                                :Coordinate East/West                 
 CoordNS.                                :Coordinate North/South               
 BRGR.gAPI                              :RAIOS GAMA (COMPOSICAO DE CURVAS CABO E/OU LWD)
 BRNEUT.%                               :POROSIDADE NEUTRONICA (COMPOSICAO DE CURVAS CABO E/OU LWD)
 BRDENS.g/cm3                           :DENSIDADE (COMPOSICAO DE CURVAS CABO E/OU LWD )
 BRDTP.us/ft                            :SONICO COMPRESSIONAL (COMPOSICAO DE CURVAS CABO E/OU LWD)
 BRCALI.in                              :CALIPER (COMPOSICAO DE CURVAS CABO E/OU LWD)
~ASCII LOG DATA                                                                
# ...
     5566.5344           -5540.7942            5565.7942       758657.81       8723160.67   62.0725    5.7453    2.4781   69.9228    8.5200 
     5566.6868           -5540.9465            5565.9465       758657.81       8723160.67   61.8849    5.5217    2.4751   69.8088    8.5146 
     5566.8392           -5541.0989            5566.0989       758657.82       8723160.68   59.6235    5.2587    2.4887   68.9041    8.5191 
     5566.9916           -5541.2512            5566.2512       758657.82       8723160.68   57.5871    5.1838    2.5052   67.3752    8.5176 
     5567.1440           -5541.4036            5566.4036       758657.82       8723160.68   61.9170    5.2544    2.5281   65.1009    8.5203 
     5567.2964           -5541.5559            5566.5559       758657.82       8723160.69   66.9959    5.0540    2.5224   63.2683    8.5164 
     5567.4488           -5541.7082            5566.7082       758657.83       8723160.69   66.0678    3.9991    2.5137   62.2293    8.4694 
     5567.6012           -5541.8606            5566.8606       758657.83       8723160.69   61.0230    2.8119    2.5477   61.6135    8.5004 
     5567.7536           -5542.0129            5567.0129       758657.83       8723160.70   53.3220    1.1026    2.6087   62.3454    8.5164 
     5567.9060           -5542.1653            5567.1653       758657.83       8723160.70   50.5689    0.9083    2.5995   63.6844    8.5156 
     5568.0584           -5542.3176            5567.3176       758657.84       8723160.70   50.0495    1.6538    2.5268   65.3450    8.4951 
     5568.2108           -5542.4699            5567.4699       758657.84       8723160.71   50.9857    2.9085    2.4866   67.2787    8.5036 
     5568.3632           -5542.6223            5567.6223       758657.84       8723160.71   54.1095    5.1367    2.4843   68.7298    8.5128 
     5568.5156           -5542.7746            5567.7746       758657.85       8723160.71   55.1576    4.8646    2.5219   69.9935    8.5179 
     5568.6680           -5542.9270            5567.9270       758657.85       8723160.72   53.2647    4.1903    2.5879   71.2937    8.5277 
     5568.8204           -5543.0793            5568.0793       758657.85       8723160.72   52.2500    3.9700    2.6190   73.1917    8.5377 
     5568.9728           -5543.2316            5568.2316       758657.85       8723160.72   58.9698    6.3274    2.6310   76.9499    8.5478 
     5569.1252           -5543.3840            5568.3840       758657.86       8723160.73   67.0934   10.0614    2.6348   80.8574    8.5584 
     5569.2776           -5543.5363            5568.5363       758657.86       8723160.73   77.0935   15.2153    2.6074   81.3471    8.5685 
     5569.4300           -5543.6887            5568.6887       758657.86       8723160.73   89.1123   17.5936    2.5801   80.8719    8.5826 
     5569.5824           -5543.8410            5568.8410       758657.86       8723160.74  111.2114   14.5744    2.5600   79.2651    8.5570 
     5569.7348           -5543.9933            5568.9933       758657.87       8723160.74  118.7921   10.9555    2.5586   76.5743    8.5395 
     5569.8872           -5544.1457            5569.1457       758657.87       8723160.74  105.3192    6.9872    2.5682   73.2076    8.5139 
     5570.0396           -5544.2980            5569.2980       758657.87       8723160.75   92.5846    5.9072    2.5562   70.3263    8.4989 
     5570.1920           -5544.4504            5569.4504       758657.88       8723160.75   82.9910    5.8914    2.5233   69.2589    8.5081 
     5570.3444           -5544.6027            5569.6027       758657.88       8723160.75   74.0430    5.6519    2.4756   69.5097    8.5201 
     5570.4968           -5544.7550            5569.7550       758657.88       8723160.76   74.7010    5.4842    2.4827   70.9614    8.5219 
     5570.6492           -5544.9074            5569.9074       758657.88       8723160.76   78.9063    6.4651    2.5158   71.9924    8.5231 
     5570.8016           -5545.0597            5570.0597       758657.89       8723160.76   80.6175    7.7207    2.5004   72.9589    8.5256 
     5570.9540           -5545.2121            5570.2121       758657.89       8723160.77   85.6376   11.8171    2.3982   73.6221    8.5234 
     5571.1064           -5545.3644            5570.3644       758657.89       8723160.77   87.2609   13.6682    2.3418   73.5839    8.5256 
     5571.2588           -5545.5168            5570.5168       758657.90       8723160.77   84.9900   13.2000    2.3368   70.4140    8.5279 
     5571.4112           -5545.6691            5570.6691       758657.90       8723160.78   81.0510   12.0387    2.3781   65.9400    8.5317 
     5571.5636           -5545.8214            5570.8214       758657.90       8723160.78   77.1271    8.0967    2.4862   63.3451    8.5436 
     5571.7160           -5545.9738            5570.9738       758657.90       8723160.78   75.4881    5.4716    2.5621   61.6794    8.5521 
     5571.8684           -5546.1261            5571.1261       758657.91       8723160.78   64.9199    3.2577    2.6159   63.5094    8.5557 
     5572.0208           -5546.2785            5571.2785       758657.91       8723160.79   53.7773    1.9259    2.6295   67.8820    8.5595 
     5572.1732           -5546.4308            5571.4308       758657.91       8723160.79   51.3434    1.8263    2.6340   73.0621    8.5506 
     5572.3256           -5546.5831            5571.5831       758657.91       8723160.79   59.0536    2.8814    2.6223   77.8941    8.5465 
     5572.4780           -5546.7355            5571.7355       758657.92       8723160.80   79.1260    6.4375    2.5763   80.8395    8.5661 
     5572.6304           -5546.8878            5571.8878       758657.92       8723160.80   94.7718   10.2094    2.5568   83.1015    8.5821 
     5572.7828           -5547.0402            5572.0402       758657.92       8723160.80  105.9195   13.8597    2.5703   82.6135    8.5820 
     5572.9352           -5547.1925            5572.1925       758657.93       8723160.81  104.8620   14.1664    2.5750   81.5268    8.5869 
     5573.0876           -5547.3448            5572.3448       758657.93       8723160.81  101.2921   13.2891    2.5785   81.5683    8.5901 
     5573.2400           -5547.4972            5572.4972       758657.93       8723160.81   97.7022   12.9407    2.5959   82.0845    8.5894 
     5573.3924           -5547.6495            5572.6495       758657.93       8723160.82   88.0474   12.9149    2.6109   83.0497    8.5923 
     5573.5448           -5547.8019            5572.8019       758657.94       8723160.82   68.9234   13.3506    2.6114   84.8521    8.5931 
     5573.6972           -5547.9542            5572.9542       758657.94       8723160.82   64.9816   15.1945    2.6035   86.2447    8.6031 
     5573.8496           -5548.1065            5573.1065       758657.94       8723160.83   75.9402   17.6778    2.5855   86.3129    8.5970 
     5574.0020           -5548.2589            5573.2589       758657.94       8723160.83   89.2687   17.6384    2.5805   85.9376    8.5913 
     5574.1544           -5548.4112            5573.4112       758657.95       8723160.83  106.5677   15.1552    2.5813   86.0972    8.5772 
     5574.3068           -5548.5636            5573.5636       758657.95       8723160.84  114.5077   13.7783    2.5849   86.6173    8.5663 
     5574.4592           -5548.7159            5573.7159       758657.95       8723160.84  127.4727   12.9525    2.5961   87.4459    8.5606 
     5574.6116           -5548.8682            5573.8682       758657.96       8723160.84  133.7015   12.3277    2.5967   88.4259    8.5568 
     5574.7640           -5549.0206            5574.0206       758657.96       8723160.85  139.1324   12.9705    2.5763   89.2682    8.5616 
     5574.9164           -5549.1729            5574.1729       758657.96       8723160.85  140.6555   14.9276    2.5611   90.0630    8.5678 
     5575.0688           -5549.3253            5574.3253       758657.96       8723160.85  138.8210   18.3542    2.5510   90.1425    8.5693 
