~VERSION INFORMATION                                                           
 VERS.           2.0: CWLS Log ASCII Standard - Version 2.0                    
 WRAP.            NO: One Line per Depth Step                                  
~WELL INFORMATION                                                              
#MNEM.UNIT              DATA            DESCRIPTION OF MNEMONIC                
#-----------            ----            -----------------------                
 STRT.M            2891.00              :Start Depth                           
 STOP.M            6549.51              :Stop Depth                            
 STEP.M             0.1524              :Step                                  
 NULL.              -99999.0            :Null Value                            
 COMP.     PETROLEO BRASILEIRO S/A      :Company                               
 ORIG.     SIGEO EXPORTACAO PERFIL      :Origem dos dados                      
 WELL.     1SES 0173  SE                :Well                                  
 FLD.                                   :Field                                 
 STAT.     SERGIPE                      :State                                 
 API.      901210520900                 :API Code                              
 UWI.      901210520900                 :API Code                              
 XCOORD.           758643.00            :Surface X                             
 YCOORD.          8723117.00            :Surface Y                             
 HZCS.           UTM                    :Horizontal Coordinate System          
 MC.               39 W                 :Meridiano Central                     
 LAT.             -11.541114            :Latitude                              
 LONG.            -36.628620            :Longitude                             
 GDAT.             SIRGAS2000           :Geodetic Datum                        
 EDF.M              25.00               :Elevation Derrick Floor               
 WDMS.M           2820.00               :Water Depth to Mean Sea Level         
~CURVE INFORMATION                                                             
 DEPT.M                                 :Measured Depth                        
 COTA.M                                 :Vertical Depth (without EKB)          
 TVD.M                                  :Vertical Depth                        
 CoordEW.                                :Coordinate East/West                 
 CoordNS.                                :Coordinate North/South               
 BRGR.gAPI                              :RAIOS GAMA (COMPOSICAO DE CURVAS CABO E/OU LWD)
 BRNEUT.%                               :POROSIDADE NEUTRONICA (COMPOSICAO DE CURVAS CABO E/OU LWD)
 BRDENS.g/cm3                           :DENSIDADE (COMPOSICAO DE CURVAS CABO E/OU LWD )
 BRDTP.us/ft                            :SONICO COMPRESSIONAL (COMPOSICAO DE CURVAS CABO E/OU LWD)
 BRCALI.in                              :CALIPER (COMPOSICAO DE CURVAS CABO E/OU LWD)
~ASCII LOG DATA                                                                
# ...
     6296.2256           -6269.9005            6294.9005       758662.78       8723187.12   55.9214    7.1218    2.7029   69.2338    8.4091 
     6296.3780           -6270.0527            6295.0527       758662.78       8723187.13   57.7923    7.9094    2.6918   69.7599    8.4356 
     6296.5304           -6270.2048            6295.2048       758662.78       8723187.14   58.1593    8.9213    2.6728   70.5325    8.4667 
     6296.6828           -6270.3570            6295.3570       758662.78       8723187.14   65.3172   10.3440    2.6518   71.1369    8.4782 
     6296.8352           -6270.5092            6295.5092       758662.78       8723187.15   73.9982   10.2102    2.6466   71.4274    8.4652 
     6296.9876           -6270.6614            6295.6614       758662.78       8723187.16   78.6933   11.7381    2.6562   71.5646    8.4543 
     6297.1400           -6270.8136            6295.8136       758662.78       8723187.17   76.7829   13.8014    2.6629   71.6972    8.4383 
     6297.2924           -6270.9657            6295.9657       758662.78       8723187.18   74.4826   13.1540    2.6661   71.4734    8.4246 
     6297.4448           -6271.1179            6296.1179       758662.78       8723187.19   72.8494   13.4700    2.6794   71.0465    8.4060 
     6297.5972           -6271.2701            6296.2701       758662.78       8723187.19   76.3195   13.6480    2.6831   70.6735    8.4027 
     6297.7496           -6271.4223            6296.4223       758662.78       8723187.20   79.7283   11.4626    2.6722   69.9809    8.4055 
     6297.9020           -6271.5744            6296.5744       758662.78       8723187.21   73.8520    8.0884    2.6682   69.3094    8.3994 
     6298.0544           -6271.7266            6296.7266       758662.78       8723187.22   68.5694    7.4956    2.6765   68.8793    8.3935 
     6298.2068           -6271.8788            6296.8788       758662.78       8723187.23   68.7933    7.6967    2.6742   68.5607    8.4008 
     6298.3592           -6272.0310            6297.0310       758662.78       8723187.23   67.0893    7.6135    2.6582   68.7014    8.4024 
     6298.5116           -6272.1832            6297.1832       758662.78       8723187.24   65.7242    7.6217    2.6524   69.1440    8.3894 
     6298.6640           -6272.3353            6297.3353       758662.78       8723187.25   63.6209    6.7742    2.6358   70.5954    8.3662 
     6298.8164           -6272.4875            6297.4875       758662.78       8723187.26   65.0003    7.1035    2.6220   72.3776    8.3662 
     6298.9688           -6272.6397            6297.6397       758662.78       8723187.27   73.1639    9.7879    2.6231   73.2039    8.3672 
     6299.1212           -6272.7919            6297.7919       758662.78       8723187.28   83.0132   11.6679    2.6317   73.7833    8.3689 
     6299.2736           -6272.9441            6297.9441       758662.78       8723187.28   95.6047   12.5556    2.6296   73.1827    8.3735 
     6299.4260           -6273.0962            6298.0962       758662.78       8723187.29   98.3503   11.4455    2.6394   71.6151    8.3761 
     6299.5784           -6273.2484            6298.2484       758662.78       8723187.30   81.2749    7.1620    2.6808   69.5859    8.3830 
     6299.7308           -6273.4006            6298.4006       758662.78       8723187.31   65.9295    4.7572    2.6951   67.5493    8.3717 
     6299.8832           -6273.5528            6298.5528       758662.78       8723187.32   56.5168    4.5748    2.6795   66.4687    8.3708 
     6300.0356           -6273.7049            6298.7049       758662.78       8723187.33   56.3876    5.2039    2.6661   66.1738    8.3763 
     6300.1880           -6273.8571            6298.8571       758662.78       8723187.33   62.9894    6.8207    2.6575   66.9598    8.4240 
     6300.3404           -6274.0093            6299.0093       758662.78       8723187.34   67.1621    8.0171    2.6609   67.8206    8.4555 
     6300.4928           -6274.1615            6299.1615       758662.78       8723187.35   69.2162    8.3357    2.6646   68.6836    8.4615 
     6300.6452           -6274.3137            6299.3137       758662.78       8723187.36   69.8184    7.9608    2.6606   69.2254    8.4625 
     6300.7976           -6274.4658            6299.4658       758662.78       8723187.37   67.2962    7.8017    2.6549   68.9149    8.4645 
     6300.9500           -6274.6180            6299.6180       758662.78       8723187.37   66.1021    6.8221    2.6535   68.4045    8.4752 
     6301.1024           -6274.7702            6299.7702       758662.78       8723187.38   68.4487    6.1587    2.6511   68.0537    8.5015 
     6301.2548           -6274.9224            6299.9224       758662.78       8723187.39   69.3945    6.1827    2.6463   67.9051    8.5551 
     6301.4072           -6275.0746            6300.0746       758662.78       8723187.40   68.7758    6.0934    2.6498   67.7226    8.5598 
     6301.5596           -6275.2267            6300.2267       758662.78       8723187.41   66.0319    6.3237    2.6631   67.9599    8.5684 
     6301.7120           -6275.3789            6300.3789       758662.78       8723187.42   61.7210    6.5298    2.6741   68.3811    8.5735 
     6301.8644           -6275.5311            6300.5311       758662.78       8723187.42   58.1872    6.7321    2.6831   68.5509    8.6117 
     6302.0168           -6275.6833            6300.6833       758662.77       8723187.43   61.4249    7.1822    2.6754   68.8321    8.6432 
     6302.1692           -6275.8354            6300.8354       758662.77       8723187.44   69.0351    9.2065    2.6631   69.6944    8.6716 
     6302.3216           -6275.9876            6300.9876       758662.77       8723187.45   71.9091   10.3611    2.6610   70.8947    8.6934 
     6302.4740           -6276.1398            6301.1398       758662.77       8723187.46   72.4597   10.7197    2.6542   72.0088    8.7220 
     6302.6264           -6276.2920            6301.2920       758662.77       8723187.47   77.0584   10.3964    2.6453   73.2415    8.7173 
     6302.7788           -6276.4442            6301.4442       758662.77       8723187.47   80.5174   10.3552    2.6532   74.4211    8.7462 
     6302.9312           -6276.5963            6301.5963       758662.77       8723187.48   83.4497   11.5841    2.6637   75.2336    8.7626 
     6303.0836           -6276.7485            6301.7485       758662.77       8723187.49   94.2403   13.5176    2.6546   74.5156    8.7896 
     6303.2360           -6276.9007            6301.9007       758662.77       8723187.50   91.6728   15.1398    2.6495   73.1814    8.8006 
     6303.3884           -6277.0529            6302.0529       758662.77       8723187.51   63.7136   13.5677    2.6581   71.4182    8.8027 
     6303.5408           -6277.2050            6302.2050       758662.77       8723187.51   49.7414   10.3112    2.6676   69.2607    8.8169 
     6303.6932           -6277.3572            6302.3572       758662.77       8723187.52   50.4067    7.3762    2.6773   67.1968    8.8357 
     6303.8456           -6277.5094            6302.5094       758662.77       8723187.53   63.3037    6.0292    2.6844   65.8061    8.7609 
     6303.9980           -6277.6616            6302.6616       758662.77       8723187.54   65.5866    7.5688    2.6830   65.9526    8.7107 
     6304.1504           -6277.8138            6302.8138       758662.77       8723187.55   62.7593    9.8862    2.6902   66.5386    8.7707 
     6304.3028           -6277.9659            6302.9659       758662.77       8723187.56   60.8675    9.5743    2.7002   67.3528    8.8049 
     6304.4552           -6278.1181            6303.1181       758662.77       8723187.56   58.7156    9.3426    2.7070   68.1673    8.8057 
     6304.6076           -6278.2703            6303.2703       758662.77       8723187.57   58.3972    9.3987    2.7090   68.9719    8.8078 
     6304.7600           -6278.4225            6303.4225       758662.77       8723187.58   60.8499    9.8442    2.7032   69.7433    8.8191 
