~VERSION INFORMATION                                                           
 VERS.           2.0: CWLS Log ASCII Standard - Version 2.0                    
 WRAP.            NO: One Line per Depth Step                                  
~WELL INFORMATION                                                              
#MNEM.UNIT              DATA            DESCRIPTION OF MNEMONIC                
#-----------            ----            -----------------------                
 STRT.M            2891.00              :Start Depth                           
 STOP.M            6549.51              :Stop Depth                            
 STEP.M             0.1524              :Step                                  
 NULL.              -99999.0            :Null Value                            
 COMP.     PETROLEO BRASILEIRO S/A      :Company                               
 ORIG.     SIGEO EXPORTACAO PERFIL      :Origem dos dados                      
 WELL.     1SES 0173  SE                :Well                                  
 FLD.                                   :Field                                 
 STAT.     SERGIPE                      :State                                 
 API.      901210520900                 :API Code                              
 UWI.      901210520900                 :API Code                              
 XCOORD.           758643.00            :Surface X                             
 YCOORD.          8723117.00            :Surface Y                             
 HZCS.           UTM                    :Horizontal Coordinate System          
 MC.               39 W                 :Meridiano Central                     
 LAT.             -11.541114            :Latitude                              
 LONG.            -36.628620            :Longitude                             
 GDAT.             SIRGAS2000           :Geodetic Datum                        
 EDF.M              25.00               :Elevation Derrick Floor               
 WDMS.M           2820.00               :Water Depth to Mean Sea Level         
~CURVE INFORMATION                                                             
 DEPT.M                                 :Measured Depth                        
 COTA.M                                 :Vertical Depth (without EKB)          
 TVD.M                                  :Vertical Depth                        
 CoordEW.                                :Coordinate East/West                 
 CoordNS.                                :Coordinate North/South               
 BRGR.gAPI                              :RAIOS GAMA (COMPOSICAO DE CURVAS CABO E/OU LWD)
 BRNEUT.%                               :POROSIDADE NEUTRONICA (COMPOSICAO DE CURVAS CABO E/OU LWD)
 BRDENS.g/cm3                           :DENSIDADE (COMPOSICAO DE CURVAS CABO E/OU LWD )
 BRDTP.us/ft                            :SONICO COMPRESSIONAL (COMPOSICAO DE CURVAS CABO E/OU LWD)
 BRCALI.in                              :CALIPER (COMPOSICAO DE CURVAS CABO E/OU LWD)
~ASCII LOG DATA                                                                
# ...
     5080.0736           -5054.6423            5079.6423       758649.15       8723146.11   99.4158   21.9143    2.5825   90.3591   12.1001 
     5080.2260           -5054.7945            5079.7945       758649.15       8723146.11   97.1400   21.0481    2.5894   90.0270   12.0991 
     5080.3784           -5054.9467            5079.9467       758649.15       8723146.12   94.8419   21.0742    2.5956   89.6533   12.0988 
     5080.5308           -5055.0989            5080.0989       758649.16       8723146.13   91.7701   20.7620    2.5889   89.0926   12.1005 
     5080.6832           -5055.2511            5080.2511       758649.16       8723146.13   91.7602   20.2097    2.5746   88.4938   12.1033 
     5080.8356           -5055.4033            5080.4033       758649.17       8723146.14   92.8192   19.9028    2.5593   88.0085   12.1028 
     5080.9880           -5055.5555            5080.5555       758649.17       8723146.15   89.8454   18.6541    2.5500   87.6467   12.0980 
     5081.1404           -5055.7078            5080.7078       758649.17       8723146.15   85.2229   18.5538    2.5573   87.6672   12.0924 
     5081.2928           -5055.8600            5080.8600       758649.18       8723146.16   82.9574   17.8200    2.5658   87.8031   12.0883 
     5081.4452           -5056.0122            5081.0122       758649.18       8723146.16   82.9626   18.2197    2.5683   88.1568   12.0888 
     5081.5976           -5056.1644            5081.1644       758649.19       8723146.17   86.1371   17.2220    2.5697   88.5538   12.0916 
     5081.7500           -5056.3166            5081.3166       758649.19       8723146.18   89.5596   17.1405    2.5685   88.6544   12.0951 
     5081.9024           -5056.4688            5081.4688       758649.19       8723146.18   91.3071   18.4734    2.5608   88.6153   12.0997 
     5082.0548           -5056.6210            5081.6210       758649.20       8723146.19   92.7093   18.3547    2.5611   88.0522   12.1012 
     5082.2072           -5056.7732            5081.7732       758649.20       8723146.20   94.6712   20.4442    2.5742   87.2554   12.0976 
     5082.3596           -5056.9255            5081.9255       758649.20       8723146.20   96.5716   21.3843    2.5837   86.5699   12.0917 
     5082.5120           -5057.0777            5082.0777       758649.21       8723146.21  100.9418   21.0409    2.5948   85.9344   12.0858 
     5082.6644           -5057.2299            5082.2299       758649.21       8723146.22  102.2776   21.1530    2.5919   85.3329   12.0839 
     5082.8168           -5057.3821            5082.3821       758649.22       8723146.22   96.8861   19.6304    2.5888   84.5175   12.0816 
     5082.9692           -5057.5343            5082.5343       758649.22       8723146.23   93.0290   19.2962    2.5962   84.1216   12.0777 
     5083.1216           -5057.6865            5082.6865       758649.22       8723146.24   93.0347   18.1404    2.5982   83.6371   12.0704 
     5083.2740           -5057.8387            5082.8387       758649.23       8723146.24   93.9285   19.0131    2.5907   82.8886   12.0658 
     5083.4264           -5057.9909            5082.9909       758649.23       8723146.25   94.1157   19.6587    2.5766   81.9331   12.0620 
     5083.5788           -5058.1432            5083.1432       758649.23       8723146.26   90.4088   19.1752    2.5434   80.9669   12.0592 
     5083.7312           -5058.2954            5083.2954       758649.24       8723146.26   84.5265   19.0101    2.5182   80.4200   12.0563 
     5083.8836           -5058.4476            5083.4476       758649.24       8723146.27   77.1856   18.1622    2.4974   80.0238   12.0529 
     5084.0360           -5058.5998            5083.5998       758649.25       8723146.28   65.0058   18.6761    2.4715   79.9946   12.0506 
     5084.1884           -5058.7520            5083.7520       758649.25       8723146.28   46.3005   17.9740    2.4274   80.0750   12.0500 
     5084.3408           -5058.9042            5083.9042       758649.25       8723146.29   32.6817   15.1270    2.3958   80.0515   12.0512 
     5084.4932           -5059.0564            5084.0564       758649.26       8723146.30   25.8308   12.4209    2.3915   79.6320   12.0531 
     5084.6456           -5059.2086            5084.2086       758649.26       8723146.30   34.5446   12.5373    2.4243   78.5064   12.0540 
     5084.7980           -5059.3609            5084.3609       758649.26       8723146.31   49.8117   14.5751    2.4552   77.3516   12.0556 
     5084.9504           -5059.5131            5084.5131       758649.27       8723146.32   57.5527   17.6707    2.4435   76.9508   12.0573 
     5085.1028           -5059.6653            5084.6653       758649.27       8723146.32   56.2494   19.1787    2.4137   77.2461   12.0600 
     5085.2552           -5059.8175            5084.8175       758649.28       8723146.33   54.5565   17.6559    2.4001   78.6223   12.0632 
     5085.4076           -5059.9697            5084.9697       758649.28       8723146.34   51.1130   14.4076    2.4285   80.3928   12.0698 
     5085.5600           -5060.1219            5085.1219       758649.28       8723146.34   45.6023   12.5359    2.4698   82.1477   12.0706 
     5085.7124           -5060.2741            5085.2741       758649.29       8723146.35   52.1292    9.8387    2.5402   83.5375   12.0700 
     5085.8648           -5060.4263            5085.4263       758649.29       8723146.35   67.2628   11.9681    2.5591   83.7404   12.0718 
     5086.0172           -5060.5786            5085.5786       758649.29       8723146.36   85.5901   18.7078    2.5471   83.2472   12.0784 
     5086.1696           -5060.7308            5085.7308       758649.30       8723146.37   86.6298   20.0713    2.5361   82.5035   12.0806 
     5086.3220           -5060.8830            5085.8830       758649.30       8723146.37   84.3326   19.6484    2.5186   81.4142   12.0741 
     5086.4744           -5061.0352            5086.0352       758649.31       8723146.38   85.6360   18.4692    2.5093   80.0805   12.0680 
     5086.6268           -5061.1874            5086.1874       758649.31       8723146.39   82.7701   19.3730    2.5122   79.0948   12.0611 
     5086.7792           -5061.3396            5086.3396       758649.31       8723146.39   75.1234   19.5960    2.5184   78.1638   12.0622 
     5086.9316           -5061.4918            5086.4918       758649.32       8723146.40   65.5836   17.5502    2.5040   77.5221   12.0682 
     5087.0840           -5061.6440            5086.6440       758649.32       8723146.41   65.9047   16.0938    2.4885   77.1077   12.0737 
     5087.2364           -5061.7963            5086.7963       758649.32       8723146.41   69.8042   15.5414    2.4891   77.5003   12.0794 
     5087.3888           -5061.9485            5086.9485       758649.33       8723146.42   74.7307   16.0471    2.5045   78.3595   12.0848 
     5087.5412           -5062.1007            5087.1007       758649.33       8723146.43   75.2150   15.2793    2.5267   79.9245   12.0905 
     5087.6936           -5062.2529            5087.2529       758649.34       8723146.43   71.5079   13.4936    2.5674   81.8959   12.1000 
     5087.8460           -5062.4051            5087.4051       758649.34       8723146.44   70.3359   11.9308    2.6069   83.7061   12.1146 
     5087.9984           -5062.5573            5087.5573       758649.34       8723146.45   73.7402   12.5689    2.6214   85.4565   12.1296 
     5088.1508           -5062.7095            5087.7095       758649.35       8723146.45   84.1065   15.2819    2.6069   86.3088   12.1363 
     5088.3032           -5062.8617            5087.8617       758649.35       8723146.46   93.1948   18.5574    2.5974   86.7466   12.1368 
     5088.4556           -5063.0140            5088.0140       758649.35       8723146.47   95.5379   20.6734    2.5896   86.6674   12.1329 
     5088.6080           -5063.1662            5088.1662       758649.36       8723146.47   96.6397   20.3661    2.5808   86.3949   12.1303 
