~VERSION INFORMATION                                                           
 VERS.           2.0: CWLS Log ASCII Standard - Version 2.0                    
 WRAP.            NO: One Line per Depth Step                                  
~WELL INFORMATION                                                              
#MNEM.UNIT              DATA            DESCRIPTION OF MNEMONIC                
#-----------            ----            -----------------------                
 STRT.M            2891.00              :Start Depth                           
 STOP.M            6549.51              :Stop Depth                            
 STEP.M             0.1524              :Step                                  
 NULL.              -99999.0            :Null Value                            
 COMP.     PETROLEO BRASILEIRO S/A      :Company                               
 ORIG.     SIGEO EXPORTACAO PERFIL      :Origem dos dados                      
 WELL.     1SES 0173  SE                :Well                                  
 FLD.                                   :Field                                 
 STAT.     SERGIPE                      :State                                 
 API.      901210520900                 :API Code                              
 UWI.      901210520900                 :API Code                              
 XCOORD.           758643.00            :Surface X                             
 YCOORD.          8723117.00            :Surface Y                             
 HZCS.           UTM                    :Horizontal Coordinate System          
 MC.               39 W                 :Meridiano Central                     
 LAT.             -11.541114            :Latitude                              
 LONG.            -36.628620            :Longitude                             
 GDAT.             SIRGAS2000           :Geodetic Datum                        
 EDF.M              25.00               :Elevation Derrick Floor               
 WDMS.M           2820.00               :Water Depth to Mean Sea Level         
~CURVE INFORMATION                                                             
 DEPT.M                                 :Measured Depth                        
 COTA.M                                 :Vertical Depth (without EKB)          
 TVD.M                                  :Vertical Depth                        
 CoordEW.                                :Coordinate East/West                 
 CoordNS.                                :Coordinate North/South               
 BRGR.gAPI                              :RAIOS GAMA (COMPOSICAO DE CURVAS CABO E/OU LWD)
 BRNEUT.%                               :POROSIDADE NEUTRONICA (COMPOSICAO DE CURVAS CABO E/OU LWD)
 BRDENS.g/cm3                           :DENSIDADE (COMPOSICAO DE CURVAS CABO E/OU LWD )
 BRDTP.us/ft                            :SONICO COMPRESSIONAL (COMPOSICAO DE CURVAS CABO E/OU LWD)
 BRCALI.in                              :CALIPER (COMPOSICAO DE CURVAS CABO E/OU LWD)
~ASCII LOG DATA                                                                
# ...
     3620.6912           -3595.6805            3620.6805       758640.76       8723119.03   51.3057  -99999.0  -99999.0  -99999.0  -99999.0 
     3620.8436           -3595.8329            3620.8329       758640.76       8723119.03   53.2357  -99999.0  -99999.0  -99999.0  -99999.0 
     3620.9960           -3595.9853            3620.9853       758640.76       8723119.03   55.5983  -99999.0  -99999.0  -99999.0  -99999.0 
     3621.1484           -3596.1377            3621.1377       758640.76       8723119.03   56.7058  -99999.0  -99999.0  -99999.0  -99999.0 
     3621.3008           -3596.2901            3621.2901       758640.76       8723119.03   57.6767  -99999.0  -99999.0  -99999.0  -99999.0 
     3621.4532           -3596.4425            3621.4425       758640.76       8723119.03   57.7096  -99999.0  -99999.0  -99999.0  -99999.0 
     3621.6056           -3596.5949            3621.5949       758640.76       8723119.04   56.4956  -99999.0  -99999.0  -99999.0  -99999.0 
     3621.7580           -3596.7472            3621.7472       758640.76       8723119.04   55.8797  -99999.0  -99999.0  -99999.0  -99999.0 
     3621.9104           -3596.8996            3621.8996       758640.75       8723119.04   56.6643  -99999.0  -99999.0  -99999.0  -99999.0 
     3622.0628           -3597.0520            3622.0520       758640.75       8723119.04   56.9879  -99999.0  -99999.0  -99999.0  -99999.0 
     3622.2152           -3597.2044            3622.2044       758640.75       8723119.04   58.3017  -99999.0  -99999.0  -99999.0  -99999.0 
     3622.3676           -3597.3568            3622.3568       758640.75       8723119.04   58.1037  -99999.0  -99999.0  -99999.0  -99999.0 
     3622.5200           -3597.5092            3622.5092       758640.75       8723119.04   57.7159  -99999.0  -99999.0  -99999.0  -99999.0 
     3622.6724           -3597.6616            3622.6616       758640.75       8723119.04   55.9400  -99999.0  -99999.0  -99999.0  -99999.0 
     3622.8248           -3597.8140            3622.8140       758640.75       8723119.04   55.4506  -99999.0  -99999.0  -99999.0  -99999.0 
     3622.9772           -3597.9664            3622.9664       758640.75       8723119.04   56.2696  -99999.0  -99999.0  -99999.0  -99999.0 
     3623.1296           -3598.1188            3623.1188       758640.75       8723119.04   56.9183  -99999.0  -99999.0  -99999.0  -99999.0 
     3623.2820           -3598.2712            3623.2712       758640.74       8723119.04   54.2050  -99999.0  -99999.0  -99999.0  -99999.0 
     3623.4344           -3598.4236            3623.4236       758640.74       8723119.04   53.3335  -99999.0  -99999.0  -99999.0  -99999.0 
     3623.5868           -3598.5760            3623.5760       758640.74       8723119.04   53.8648  -99999.0  -99999.0  -99999.0  -99999.0 
     3623.7392           -3598.7284            3623.7284       758640.74       8723119.05   57.4002  -99999.0  -99999.0  -99999.0  -99999.0 
     3623.8916           -3598.8808            3623.8808       758640.74       8723119.05   59.6036  -99999.0  -99999.0  -99999.0  -99999.0 
     3624.0440           -3599.0332            3624.0332       758640.74       8723119.05   57.2980  -99999.0  -99999.0  -99999.0  -99999.0 
     3624.1964           -3599.1856            3624.1856       758640.74       8723119.05   57.6730  -99999.0  -99999.0  -99999.0  -99999.0 
     3624.3488           -3599.3379            3624.3379       758640.74       8723119.05   56.7731  -99999.0  -99999.0  -99999.0  -99999.0 
     3624.5012           -3599.4903            3624.4903       758640.74       8723119.05   55.9463  -99999.0  -99999.0  -99999.0  -99999.0 
     3624.6536           -3599.6427            3624.6427       758640.73       8723119.05   54.7879  -99999.0  -99999.0  -99999.0  -99999.0 
     3624.8060           -3599.7951            3624.7951       758640.73       8723119.05   54.4558  -99999.0  -99999.0  -99999.0  -99999.0 
     3624.9584           -3599.9475            3624.9475       758640.73       8723119.05   55.9157  -99999.0  -99999.0  -99999.0  -99999.0 
     3625.1108           -3600.0999            3625.0999       758640.73       8723119.05   56.1278  -99999.0  -99999.0  -99999.0  -99999.0 
     3625.2632           -3600.2523            3625.2523       758640.73       8723119.05   56.2029  -99999.0  -99999.0  -99999.0  -99999.0 
     3625.4156           -3600.4047            3625.4047       758640.73       8723119.05   55.0515  -99999.0  -99999.0  -99999.0  -99999.0 
     3625.5680           -3600.5571            3625.5571       758640.73       8723119.05   56.0549  -99999.0  -99999.0  -99999.0  -99999.0 
     3625.7204           -3600.7095            3625.7095       758640.73       8723119.06   56.7361  -99999.0  -99999.0  -99999.0  -99999.0 
     3625.8728           -3600.8619            3625.8619       758640.73       8723119.06   55.7385  -99999.0  -99999.0  -99999.0  -99999.0 
     3626.0252           -3601.0143            3626.0143       758640.72       8723119.06   53.0269  -99999.0  -99999.0  -99999.0  -99999.0 
     3626.1776           -3601.1667            3626.1667       758640.72       8723119.06   53.5404  -99999.0  -99999.0  -99999.0  -99999.0 
     3626.3300           -3601.3191            3626.3191       758640.72       8723119.06   57.8774  -99999.0  -99999.0  -99999.0  -99999.0 
     3626.4824           -3601.4715            3626.4715       758640.72       8723119.06   59.1540  -99999.0  -99999.0  -99999.0  -99999.0 
     3626.6348           -3601.6239            3626.6239       758640.72       8723119.06   57.9006  -99999.0  -99999.0  -99999.0  -99999.0 
     3626.7872           -3601.7762            3626.7762       758640.72       8723119.06   57.2097  -99999.0  -99999.0  -99999.0  -99999.0 
     3626.9396           -3601.9286            3626.9286       758640.72       8723119.06   56.9485  -99999.0  -99999.0  -99999.0  -99999.0 
     3627.0920           -3602.0810            3627.0810       758640.72       8723119.06   57.3220  -99999.0  -99999.0  -99999.0  -99999.0 
     3627.2444           -3602.2334            3627.2334       758640.72       8723119.06   58.8524  -99999.0  -99999.0  -99999.0  -99999.0 
     3627.3968           -3602.3858            3627.3858       758640.71       8723119.06   58.3874  -99999.0  -99999.0  -99999.0  -99999.0 
     3627.5492           -3602.5382            3627.5382       758640.71       8723119.06   57.0989  -99999.0  -99999.0  -99999.0  -99999.0 
     3627.7016           -3602.6906            3627.6906       758640.71       8723119.07   56.6799  -99999.0  -99999.0  -99999.0  -99999.0 
     3627.8540           -3602.8430            3627.8430       758640.71       8723119.07   56.2159  -99999.0  -99999.0  -99999.0  -99999.0 
     3628.0064           -3602.9954            3627.9954       758640.71       8723119.07   57.6940  -99999.0  -99999.0  -99999.0  -99999.0 
     3628.1588           -3603.1478            3628.1478       758640.71       8723119.07   55.5337  -99999.0  -99999.0  -99999.0  -99999.0 
     3628.3112           -3603.3002            3628.3002       758640.71       8723119.07   55.8359  -99999.0  -99999.0  -99999.0  -99999.0 
     3628.4636           -3603.4526            3628.4526       758640.71       8723119.07   55.3278  -99999.0  -99999.0  -99999.0  -99999.0 
     3628.6160           -3603.6050            3628.6050       758640.71       8723119.07   55.8253  -99999.0  -99999.0  -99999.0  -99999.0 
     3628.7684           -3603.7574            3628.7574       758640.70       8723119.07   55.9747  -99999.0  -99999.0  -99999.0  -99999.0 
     3628.9208           -3603.9098            3628.9098       758640.70       8723119.07   55.0256  -99999.0  -99999.0  -99999.0  -99999.0 
     3629.0732           -3604.0622            3629.0622       758640.70       8723119.07   54.9592  -99999.0  -99999.0  -99999.0  -99999.0 
     3629.2256           -3604.2146            3629.2146       758640.70       8723119.07   55.8037  -99999.0  -99999.0  -99999.0  -99999.0 
