~VERSION INFORMATION                                                           
 VERS.           2.0: CWLS Log ASCII Standard - Version 2.0                    
 WRAP.            NO: One Line per Depth Step                                  
~WELL INFORMATION                                                              
#MNEM.UNIT              DATA            DESCRIPTION OF MNEMONIC                
#-----------            ----            -----------------------                
 STRT.M            2891.00              :Start Depth                           
 STOP.M            6549.51              :Stop Depth                            
 STEP.M             0.1524              :Step                                  
 NULL.              -99999.0            :Null Value                            
 COMP.     PETROLEO BRASILEIRO S/A      :Company                               
 ORIG.     SIGEO EXPORTACAO PERFIL      :Origem dos dados                      
 WELL.     1SES 0173  SE                :Well                                  
 FLD.                                   :Field                                 
 STAT.     SERGIPE                      :State                                 
 API.      901210520900                 :API Code                              
 UWI.      901210520900                 :API Code                              
 XCOORD.           758643.00            :Surface X                             
 YCOORD.          8723117.00            :Surface Y                             
 HZCS.           UTM                    :Horizontal Coordinate System          
 MC.               39 W                 :Meridiano Central                     
 LAT.             -11.541114            :Latitude                              
 LONG.            -36.628620            :Longitude                             
 GDAT.             SIRGAS2000           :Geodetic Datum                        
 EDF.M              25.00               :Elevation Derrick Floor               
 WDMS.M           2820.00               :Water Depth to Mean Sea Level         
~CURVE INFORMATION                                                             
 DEPT.M                                 :Measured Depth                        
 COTA.M                                 :Vertical Depth (without EKB)          
 TVD.M                                  :Vertical Depth                        
 CoordEW.                                :Coordinate East/West                 
 CoordNS.                                :Coordinate North/South               
 BRGR.gAPI                              :RAIOS GAMA (COMPOSICAO DE CURVAS CABO E/OU LWD)
 BRNEUT.%                               :POROSIDADE NEUTRONICA (COMPOSICAO DE CURVAS CABO E/OU LWD)
 BRDENS.g/cm3                           :DENSIDADE (COMPOSICAO DE CURVAS CABO E/OU LWD )
 BRDTP.us/ft                            :SONICO COMPRESSIONAL (COMPOSICAO DE CURVAS CABO E/OU LWD)
 BRCALI.in                              :CALIPER (COMPOSICAO DE CURVAS CABO E/OU LWD)
~ASCII LOG DATA                                                                
     2891.0000           -2865.9997            2890.9997       758642.89       8723117.09   12.5575  -99999.0  -99999.0  -99999.0  -99999.0 
     2891.1524           -2866.1521            2891.1521       758642.89       8723117.09   12.1757  -99999.0  -99999.0  -99999.0  -99999.0 
     2891.3048           -2866.3045            2891.3045       758642.89       8723117.09   11.9919  -99999.0  -99999.0  -99999.0  -99999.0 
     2891.4572           -2866.4569            2891.4569       758642.89       8723117.09   12.0875  -99999.0  -99999.0  -99999.0  -99999.0 
     2891.6096           -2866.6093            2891.6093       758642.89       8723117.09   12.6842  -99999.0  -99999.0  -99999.0  -99999.0 
     2891.7620           -2866.7617            2891.7617       758642.89       8723117.09   12.9487  -99999.0  -99999.0  -99999.0  -99999.0 
     2891.9144           -2866.9141            2891.9141       758642.89       8723117.10   13.1455  -99999.0  -99999.0  -99999.0  -99999.0 
     2892.0668           -2867.0665            2892.0665       758642.89       8723117.10   13.3098  -99999.0  -99999.0  -99999.0  -99999.0 
     2892.2192           -2867.2189            2892.2189       758642.89       8723117.10   13.4512  -99999.0  -99999.0  -99999.0  -99999.0 
     2892.3716           -2867.3713            2892.3713       758642.89       8723117.10   12.7401  -99999.0  -99999.0  -99999.0  -99999.0 
     2892.5240           -2867.5237            2892.5237       758642.89       8723117.10   13.3498  -99999.0  -99999.0  -99999.0  -99999.0 
     2892.6764           -2867.6761            2892.6761       758642.89       8723117.10   12.9243  -99999.0  -99999.0  -99999.0  -99999.0 
     2892.8288           -2867.8285            2892.8285       758642.88       8723117.10   12.7339  -99999.0  -99999.0  -99999.0  -99999.0 
     2892.9812           -2867.9809            2892.9809       758642.88       8723117.10   12.7153  -99999.0  -99999.0  -99999.0  -99999.0 
     2893.1336           -2868.1333            2893.1333       758642.88       8723117.10   12.3007  -99999.0  -99999.0  -99999.0  -99999.0 
     2893.2860           -2868.2857            2893.2857       758642.88       8723117.10   11.5375  -99999.0  -99999.0  -99999.0  -99999.0 
     2893.4384           -2868.4381            2893.4381       758642.88       8723117.10   11.3453  -99999.0  -99999.0  -99999.0  -99999.0 
     2893.5908           -2868.5905            2893.5905       758642.88       8723117.10   11.0679  -99999.0  -99999.0  -99999.0  -99999.0 
     2893.7432           -2868.7429            2893.7429       758642.88       8723117.10   11.6830  -99999.0  -99999.0  -99999.0  -99999.0 
     2893.8956           -2868.8953            2893.8953       758642.88       8723117.10   12.2713  -99999.0  -99999.0  -99999.0  -99999.0 
     2894.0480           -2869.0477            2894.0477       758642.88       8723117.10   12.7710  -99999.0  -99999.0  -99999.0  -99999.0 
     2894.2004           -2869.2001            2894.2001       758642.88       8723117.11   13.1362  -99999.0  -99999.0  -99999.0  -99999.0 
     2894.3528           -2869.3526            2894.3526       758642.88       8723117.11   13.0045  -99999.0  -99999.0  -99999.0  -99999.0 
     2894.5052           -2869.5050            2894.5050       758642.87       8723117.11   13.8413  -99999.0  -99999.0  -99999.0  -99999.0 
     2894.6576           -2869.6575            2894.6575       758642.87       8723117.11   14.2122  -99999.0  -99999.0  -99999.0  -99999.0 
     2894.8100           -2869.8099            2894.8099       758642.87       8723117.11   13.9514  -99999.0  -99999.0  -99999.0  -99999.0 
     2894.9624           -2869.9624            2894.9624       758642.87       8723117.11   13.5441  -99999.0  -99999.0  -99999.0  -99999.0 
     2895.1148           -2870.1148            2895.1148       758642.87       8723117.11   13.4803  -99999.0  -99999.0  -99999.0  -99999.0 
     2895.2672           -2870.2672            2895.2672       758642.87       8723117.11   13.4799  -99999.0  -99999.0  -99999.0  -99999.0 
     2895.4196           -2870.4196            2895.4196       758642.87       8723117.11   13.6453  -99999.0  -99999.0  -99999.0  -99999.0 
     2895.5720           -2870.5720            2895.5720       758642.87       8723117.11   13.6601  -99999.0  -99999.0  -99999.0  -99999.0 
     2895.7244           -2870.7244            2895.7244       758642.87       8723117.11   14.0790  -99999.0  -99999.0  -99999.0  -99999.0 
     2895.8768           -2870.8768            2895.8768       758642.87       8723117.11   13.9593  -99999.0  -99999.0  -99999.0  -99999.0 
     2896.0292           -2871.0292            2896.0292       758642.86       8723117.11   13.4592  -99999.0  -99999.0  -99999.0  -99999.0 
     2896.1816           -2871.1816            2896.1816       758642.86       8723117.12   13.2582  -99999.0  -99999.0  -99999.0  -99999.0 
     2896.3340           -2871.3340            2896.3340       758642.86       8723117.12   13.0771  -99999.0  -99999.0  -99999.0  -99999.0 
     2896.4864           -2871.4864            2896.4864       758642.86       8723117.12   13.3844  -99999.0  -99999.0  -99999.0  -99999.0 
     2896.6388           -2871.6388            2896.6388       758642.86       8723117.12   13.7389  -99999.0  -99999.0  -99999.0  -99999.0 
     2896.7912           -2871.7912            2896.7912       758642.86       8723117.12   13.8427  -99999.0  -99999.0  -99999.0  -99999.0 
     2896.9436           -2871.9436            2896.9436       758642.86       8723117.12   13.9648  -99999.0  -99999.0  -99999.0  -99999.0 
     2897.0960           -2872.0960            2897.0960       758642.86       8723117.12   14.1754  -99999.0  -99999.0  -99999.0  -99999.0 
     2897.2484           -2872.2484            2897.2484       758642.86       8723117.12   13.7837  -99999.0  -99999.0  -99999.0  -99999.0 
     2897.4008           -2872.4007            2897.4007       758642.86       8723117.12   13.3287  -99999.0  -99999.0  -99999.0  -99999.0 
     2897.5532           -2872.5531            2897.5531       758642.86       8723117.12   12.7238  -99999.0  -99999.0  -99999.0  -99999.0 
     2897.7056           -2872.7055            2897.7055       758642.86       8723117.12   12.3485  -99999.0  -99999.0  -99999.0  -99999.0 
     2897.8580           -2872.8579            2897.8579       758642.86       8723117.12   12.4126  -99999.0  -99999.0  -99999.0  -99999.0 
     2898.0104           -2873.0103            2898.0103       758642.86       8723117.12   12.9984  -99999.0  -99999.0  -99999.0  -99999.0 
     2898.1628           -2873.1627            2898.1627       758642.85       8723117.12   13.0800  -99999.0  -99999.0  -99999.0  -99999.0 
     2898.3152           -2873.3151            2898.3151       758642.85       8723117.12   12.8715  -99999.0  -99999.0  -99999.0  -99999.0 
     2898.4676           -2873.4675            2898.4675       758642.85       8723117.12   12.9599  -99999.0  -99999.0  -99999.0  -99999.0 
     2898.6200           -2873.6199            2898.6199       758642.85       8723117.13   12.7946  -99999.0  -99999.0  -99999.0  -99999.0 
     2898.7724           -2873.7723            2898.7723       758642.85       8723117.13   12.9715  -99999.0  -99999.0  -99999.0  -99999.0 
     2898.9248           -2873.9247            2898.9247       758642.85       8723117.13   12.8525  -99999.0  -99999.0  -99999.0  -99999.0 
     2899.0772           -2874.0771            2899.0771       758642.85       8723117.13   12.7278  -99999.0  -99999.0  -99999.0  -99999.0 
     2899.2296           -2874.2295            2899.2295       758642.85       8723117.13   12.4610  -99999.0  -99999.0  -99999.0  -99999.0 
     2899.3820           -2874.3819            2899.3819       758642.85       8723117.13   12.6896  -99999.0  -99999.0  -99999.0  -99999.0 
     2899.5344           -2874.5343            2899.5343       758642.85       8723117.13   12.9887  -99999.0  -99999.0  -99999.0  -99999.0 
