~VERSION INFORMATION                                                           
 VERS.           2.0: CWLS Log ASCII Standard - Version 2.0                    
 WRAP.            NO: One Line per Depth Step                                  
~WELL INFORMATION                                                              
#MNEM.UNIT              DATA            DESCRIPTION OF MNEMONIC                
#-----------            ----            -----------------------                
 STRT.M            2891.00              :Start Depth                           
 STOP.M            6549.51              :Stop Depth                            
 STEP.M             0.1524              :Step                                  
 NULL.              -99999.0            :Null Value                            
 COMP.     PETROLEO BRASILEIRO S/A      :Company                               
 ORIG.     SIGEO EXPORTACAO PERFIL      :Origem dos dados                      
 WELL.     1SES 0173  SE                :Well                                  
 FLD.                                   :Field                                 
 STAT.     SERGIPE                      :State                                 
 API.      901210520900                 :API Code                              
 UWI.      901210520900                 :API Code                              
 XCOORD.           758643.00            :Surface X                             
 YCOORD.          8723117.00            :Surface Y                             
 HZCS.           UTM                    :Horizontal Coordinate System          
 MC.               39 W                 :Meridiano Central                     
 LAT.             -11.541114            :Latitude                              
 LONG.            -36.628620            :Longitude                             
 GDAT.             SIRGAS2000           :Geodetic Datum                        
 EDF.M              25.00               :Elevation Derrick Floor               
 WDMS.M           2820.00               :Water Depth to Mean Sea Level         
~CURVE INFORMATION                                                             
 DEPT.M                                 :Measured Depth                        
 COTA.M                                 :Vertical Depth (without EKB)          
 TVD.M                                  :Vertical Depth                        
 CoordEW.                                :Coordinate East/West                 
 CoordNS.                                :Coordinate North/South               
 BRGR.gAPI                              :RAIOS GAMA (COMPOSICAO DE CURVAS CABO E/OU LWD)
 BRNEUT.%                               :POROSIDADE NEUTRONICA (COMPOSICAO DE CURVAS CABO E/OU LWD)
 BRDENS.g/cm3                           :DENSIDADE (COMPOSICAO DE CURVAS CABO E/OU LWD )
 BRDTP.us/ft                            :SONICO COMPRESSIONAL (COMPOSICAO DE CURVAS CABO E/OU LWD)
 BRCALI.in                              :CALIPER (COMPOSICAO DE CURVAS CABO E/OU LWD)
~ASCII LOG DATA                                                                
# ...
     6539.4560           -6512.7772            6537.7772       758662.71       8723200.23  -99999.0  -99999.0    2.6806   70.4769    8.3388 
     6539.6084           -6512.9294            6537.9294       758662.71       8723200.24  -99999.0  -99999.0    2.6679   70.1583    8.3394 
     6539.7608           -6513.0816            6538.0816       758662.71       8723200.25  -99999.0  -99999.0    2.6516   69.8503    8.3400 
     6539.9132           -6513.2338            6538.2338       758662.71       8723200.26  -99999.0  -99999.0    2.6456   69.4026    8.3412 
     6540.0656           -6513.3860            6538.3860       758662.71       8723200.26  -99999.0  -99999.0    2.6347   68.5851    8.3386 
     6540.2180           -6513.5381            6538.5381       758662.71       8723200.27  -99999.0  -99999.0    2.6256   67.5258    8.3239 
     6540.3704           -6513.6903            6538.6903       758662.71       8723200.28  -99999.0  -99999.0    2.6035   66.6847    8.3221 
     6540.5228           -6513.8425            6538.8425       758662.71       8723200.29  -99999.0  -99999.0    2.5824   65.8430    8.3224 
     6540.6752           -6513.9947            6538.9947       758662.71       8723200.30  -99999.0  -99999.0    2.5723   65.0113    8.3093 
     6540.8276           -6514.1469            6539.1469       758662.71       8723200.30  -99999.0  -99999.0    2.5758   64.3695    8.3109 
     6540.9800           -6514.2990            6539.2990       758662.71       8723200.31  -99999.0  -99999.0    2.5873   63.8172    8.3053 
     6541.1324           -6514.4512            6539.4512       758662.71       8723200.32  -99999.0  -99999.0    2.5949   63.0034    8.2418 
     6541.2848           -6514.6034            6539.6034       758662.71       8723200.33  -99999.0  -99999.0    2.6045   62.6343    8.2022 
     6541.4372           -6514.7556            6539.7556       758662.71       8723200.34  -99999.0  -99999.0    2.6051   62.6521    8.1762 
     6541.5896           -6514.9077            6539.9077       758662.71       8723200.35  -99999.0  -99999.0    2.6043   63.3449    8.1927 
     6541.7420           -6515.0599            6540.0599       758662.71       8723200.35  -99999.0  -99999.0  -99999.0   64.3495  -99999.0 
     6541.8944           -6515.2121            6540.2121       758662.71       8723200.36  -99999.0  -99999.0  -99999.0   64.5808  -99999.0 
     6542.0468           -6515.3643            6540.3643       758662.71       8723200.37  -99999.0  -99999.0  -99999.0   64.1244  -99999.0 
     6542.1992           -6515.5165            6540.5165       758662.71       8723200.38  -99999.0  -99999.0  -99999.0   63.7873  -99999.0 
     6542.3516           -6515.6686            6540.6686       758662.71       8723200.39  -99999.0  -99999.0  -99999.0   63.6394  -99999.0 
     6542.5040           -6515.8208            6540.8208       758662.71       8723200.40  -99999.0  -99999.0  -99999.0   63.6365  -99999.0 
     6542.6564           -6515.9730            6540.9730       758662.71       8723200.40  -99999.0  -99999.0  -99999.0   64.0676  -99999.0 
     6542.8088           -6516.1252            6541.1252       758662.71       8723200.41  -99999.0  -99999.0  -99999.0   64.6879  -99999.0 
     6542.9612           -6516.2774            6541.2774       758662.71       8723200.42  -99999.0  -99999.0  -99999.0   65.1663  -99999.0 
     6543.1136           -6516.4295            6541.4295       758662.71       8723200.43  -99999.0  -99999.0  -99999.0   65.5139  -99999.0 
     6543.2660           -6516.5817            6541.5817       758662.71       8723200.44  -99999.0  -99999.0  -99999.0   65.7957  -99999.0 
     6543.4184           -6516.7339            6541.7339       758662.71       8723200.44  -99999.0  -99999.0  -99999.0   66.1219  -99999.0 
     6543.5708           -6516.8861            6541.8861       758662.71       8723200.45  -99999.0  -99999.0  -99999.0   66.5236  -99999.0 
     6543.7232           -6517.0382            6542.0382       758662.71       8723200.46  -99999.0  -99999.0  -99999.0   66.9482  -99999.0 
     6543.8756           -6517.1904            6542.1904       758662.71       8723200.47  -99999.0  -99999.0  -99999.0   67.3676  -99999.0 
     6544.0280           -6517.3426            6542.3426       758662.71       8723200.48  -99999.0  -99999.0  -99999.0   67.7229  -99999.0 
     6544.1804           -6517.4948            6542.4948       758662.71       8723200.49  -99999.0  -99999.0  -99999.0   67.7090  -99999.0 
     6544.3328           -6517.6470            6542.6470       758662.71       8723200.49  -99999.0  -99999.0  -99999.0   67.6569  -99999.0 
     6544.4852           -6517.7991            6542.7991       758662.71       8723200.50  -99999.0  -99999.0  -99999.0   67.7888  -99999.0 
     6544.6376           -6517.9513            6542.9513       758662.71       8723200.51  -99999.0  -99999.0  -99999.0   67.9445  -99999.0 
     6544.7900           -6518.1035            6543.1035       758662.71       8723200.52  -99999.0  -99999.0  -99999.0   67.8900  -99999.0 
     6544.9424           -6518.2557            6543.2557       758662.71       8723200.53  -99999.0  -99999.0  -99999.0   67.8924  -99999.0 
     6545.0948           -6518.4079            6543.4079       758662.71       8723200.53  -99999.0  -99999.0  -99999.0   67.8161  -99999.0 
     6545.2472           -6518.5600            6543.5600       758662.71       8723200.54  -99999.0  -99999.0  -99999.0   67.3542  -99999.0 
     6545.3996           -6518.7122            6543.7122       758662.71       8723200.55  -99999.0  -99999.0  -99999.0   66.7930  -99999.0 
     6545.5520           -6518.8644            6543.8644       758662.71       8723200.56  -99999.0  -99999.0  -99999.0   65.5677  -99999.0 
     6545.7044           -6519.0166            6544.0166       758662.71       8723200.57  -99999.0  -99999.0  -99999.0   63.8304  -99999.0 
     6545.8568           -6519.1687            6544.1687       758662.71       8723200.58  -99999.0  -99999.0  -99999.0   62.5565  -99999.0 
     6546.0092           -6519.3209            6544.3209       758662.71       8723200.58  -99999.0  -99999.0  -99999.0   61.5549  -99999.0 
     6546.1616           -6519.4731            6544.4731       758662.71       8723200.59  -99999.0  -99999.0  -99999.0   61.4466  -99999.0 
     6546.3140           -6519.6253            6544.6253       758662.71       8723200.60  -99999.0  -99999.0  -99999.0   61.8796  -99999.0 
     6546.4664           -6519.7775            6544.7775       758662.71       8723200.61  -99999.0  -99999.0  -99999.0   63.0226  -99999.0 
     6546.6188           -6519.9296            6544.9296       758662.71       8723200.62  -99999.0  -99999.0  -99999.0   64.2967  -99999.0 
     6546.7712           -6520.0818            6545.0818       758662.71       8723200.63  -99999.0  -99999.0  -99999.0   64.8842  -99999.0 
     6546.9236           -6520.2340            6545.2340       758662.71       8723200.63  -99999.0  -99999.0  -99999.0   65.3669  -99999.0 
     6547.0760           -6520.3862            6545.3862       758662.71       8723200.64  -99999.0  -99999.0  -99999.0   65.7171  -99999.0 
     6547.2284           -6520.5383            6545.5383       758662.71       8723200.65  -99999.0  -99999.0  -99999.0   66.1599  -99999.0 
     6547.3808           -6520.6905            6545.6905       758662.71       8723200.66  -99999.0  -99999.0  -99999.0   66.7069  -99999.0 
     6547.5332           -6520.8427            6545.8427       758662.71       8723200.67  -99999.0  -99999.0  -99999.0   67.4690  -99999.0 
     6547.6856           -6520.9949            6545.9949       758662.71       8723200.67  -99999.0  -99999.0  -99999.0   68.3561  -99999.0 
     6547.8380           -6521.1471            6546.1471       758662.71       8723200.68  -99999.0  -99999.0  -99999.0   69.2500  -99999.0 
     6547.9904           -6521.2992            6546.2992       758662.71       8723200.69  -99999.0  -99999.0  -99999.0   70.2178  -99999.0 
