~VERSION INFORMATION                                                           
 VERS.           2.0: CWLS Log ASCII Standard - Version 2.0                    
 WRAP.            NO: One Line per Depth Step                                  
~WELL INFORMATION                                                              
#MNEM.UNIT              DATA            DESCRIPTION OF MNEMONIC                
#-----------            ----            -----------------------                
 STRT.M            2891.00              :Start Depth                           
 STOP.M            6549.51              :Stop Depth                            
 STEP.M             0.1524              :Step                                  
 NULL.              -99999.0            :Null Value                            
 COMP.     PETROLEO BRASILEIRO S/A      :Company                               
 ORIG.     SIGEO EXPORTACAO PERFIL      :Origem dos dados                      
 WELL.     1SES 0173  SE                :Well                                  
 FLD.                                   :Field                                 
 STAT.     SERGIPE                      :State                                 
 API.      901210520900                 :API Code                              
 UWI.      901210520900                 :API Code                              
 XCOORD.           758643.00            :Surface X                             
 YCOORD.          8723117.00            :Surface Y                             
 HZCS.           UTM                    :Horizontal Coordinate System          
 MC.               39 W                 :Meridiano Central                     
 LAT.             -11.541114            :Latitude                              
 LONG.            -36.628620            :Longitude                             
 GDAT.             SIRGAS2000           :Geodetic Datum                        
 EDF.M              25.00               :Elevation Derrick Floor               
 WDMS.M           2820.00               :Water Depth to Mean Sea Level         
~CURVE INFORMATION                                                             
 DEPT.M                                 :Measured Depth                        
 COTA.M                                 :Vertical Depth (without EKB)          
 TVD.M                                  :Vertical Depth                        
 CoordEW.                                :Coordinate East/West                 
 CoordNS.                                :Coordinate North/South               
 BRGR.gAPI                              :RAIOS GAMA (COMPOSICAO DE CURVAS CABO E/OU LWD)
 BRNEUT.%                               :POROSIDADE NEUTRONICA (COMPOSICAO DE CURVAS CABO E/OU LWD)
 BRDENS.g/cm3                           :DENSIDADE (COMPOSICAO DE CURVAS CABO E/OU LWD )
 BRDTP.us/ft                            :SONICO COMPRESSIONAL (COMPOSICAO DE CURVAS CABO E/OU LWD)
 BRCALI.in                              :CALIPER (COMPOSICAO DE CURVAS CABO E/OU LWD)
~ASCII LOG DATA                                                                
# ...
     4350.3824           -4325.3222            4350.3222       758639.76       8723126.75   68.5750  -99999.0  -99999.0  104.2547  -99999.0 
     4350.5348           -4325.4746            4350.4746       758639.77       8723126.75   70.2854  -99999.0  -99999.0  104.8408  -99999.0 
     4350.6872           -4325.6270            4350.6270       758639.77       8723126.75   70.5762  -99999.0  -99999.0  104.7348  -99999.0 
     4350.8396           -4325.7794            4350.7794       758639.77       8723126.76   67.8628  -99999.0  -99999.0  103.9133  -99999.0 
     4350.9920           -4325.9318            4350.9318       758639.77       8723126.76   65.8111  -99999.0  -99999.0  102.6764  -99999.0 
     4351.1444           -4326.0842            4351.0842       758639.77       8723126.76   65.7212  -99999.0  -99999.0  101.5463  -99999.0 
     4351.2968           -4326.2365            4351.2365       758639.77       8723126.76   64.6835  -99999.0  -99999.0  101.4132  -99999.0 
     4351.4492           -4326.3889            4351.3889       758639.77       8723126.77   64.3752  -99999.0  -99999.0  102.9598  -99999.0 
     4351.6016           -4326.5413            4351.5413       758639.77       8723126.77   64.4294  -99999.0  -99999.0  105.8909  -99999.0 
     4351.7540           -4326.6937            4351.6937       758639.77       8723126.77   66.9585  -99999.0  -99999.0  109.3537  -99999.0 
     4351.9064           -4326.8461            4351.8461       758639.77       8723126.77   73.2510  -99999.0  -99999.0  112.9718  -99999.0 
     4352.0588           -4326.9985            4351.9985       758639.77       8723126.77   77.0966  -99999.0  -99999.0  116.6125  -99999.0 
     4352.2112           -4327.1508            4352.1508       758639.77       8723126.78   77.4144  -99999.0  -99999.0  119.6529  -99999.0 
     4352.3636           -4327.3032            4352.3032       758639.77       8723126.78   78.7734  -99999.0  -99999.0  121.9270  -99999.0 
     4352.5160           -4327.4556            4352.4556       758639.77       8723126.78   80.5288  -99999.0  -99999.0  123.0495  -99999.0 
     4352.6684           -4327.6080            4352.6080       758639.77       8723126.78   80.6803  -99999.0  -99999.0  122.9400  -99999.0 
     4352.8208           -4327.7604            4352.7604       758639.77       8723126.79   80.7739  -99999.0  -99999.0  122.3286  -99999.0 
     4352.9732           -4327.9128            4352.9128       758639.77       8723126.79   80.8913  -99999.0  -99999.0  121.3790  -99999.0 
     4353.1256           -4328.0651            4353.0651       758639.77       8723126.79   80.4390  -99999.0  -99999.0  120.5341  -99999.0 
     4353.2780           -4328.2175            4353.2175       758639.77       8723126.79   80.8410  -99999.0  -99999.0  119.6652  -99999.0 
     4353.4304           -4328.3699            4353.3699       758639.78       8723126.79   82.8070  -99999.0  -99999.0  118.0867  -99999.0 
     4353.5828           -4328.5223            4353.5223       758639.78       8723126.80   82.9501  -99999.0  -99999.0  116.2798  -99999.0 
     4353.7352           -4328.6747            4353.6747       758639.78       8723126.80   80.5163  -99999.0  -99999.0  115.2067  -99999.0 
     4353.8876           -4328.8270            4353.8270       758639.78       8723126.80   80.2919  -99999.0  -99999.0  114.4294  -99999.0 
     4354.0400           -4328.9794            4353.9794       758639.78       8723126.80   80.7470  -99999.0  -99999.0  114.0602  -99999.0 
     4354.1924           -4329.1318            4354.1318       758639.78       8723126.81   80.6368  -99999.0  -99999.0  114.6665  -99999.0 
     4354.3448           -4329.2842            4354.2842       758639.78       8723126.81   78.9192  -99999.0  -99999.0  116.4332  -99999.0 
     4354.4972           -4329.4366            4354.4366       758639.78       8723126.81   78.6244  -99999.0  -99999.0  119.3834  -99999.0 
     4354.6496           -4329.5890            4354.5890       758639.78       8723126.81   77.5875  -99999.0  -99999.0  122.5613  -99999.0 
     4354.8020           -4329.7413            4354.7413       758639.78       8723126.81   75.3067  -99999.0  -99999.0  124.2028  -99999.0 
     4354.9544           -4329.8937            4354.8937       758639.78       8723126.82   74.4538  -99999.0  -99999.0  124.5749  -99999.0 
     4355.1068           -4330.0461            4355.0461       758639.78       8723126.82   73.6590  -99999.0  -99999.0  125.0661  -99999.0 
     4355.2592           -4330.1985            4355.1985       758639.78       8723126.82   72.6674  -99999.0  -99999.0  125.8046  -99999.0 
     4355.4116           -4330.3509            4355.3509       758639.78       8723126.82   71.7601  -99999.0  -99999.0  126.7275  -99999.0 
     4355.5640           -4330.5033            4355.5033       758639.78       8723126.83   70.3718  -99999.0  -99999.0  127.3239  -99999.0 
     4355.7164           -4330.6556            4355.6556       758639.78       8723126.83   70.8319  -99999.0  -99999.0  126.9496  -99999.0 
     4355.8688           -4330.8080            4355.8080       758639.78       8723126.83   70.4697  -99999.0  -99999.0  126.3527  -99999.0 
     4356.0212           -4330.9604            4355.9604       758639.78       8723126.83   69.4421  -99999.0  -99999.0  126.2271  -99999.0 
     4356.1736           -4331.1128            4356.1128       758639.79       8723126.83   69.6608  -99999.0  -99999.0  126.7483  -99999.0 
     4356.3260           -4331.2652            4356.2652       758639.79       8723126.84   70.9583  -99999.0  -99999.0  127.1980  -99999.0 
     4356.4784           -4331.4176            4356.4176       758639.79       8723126.84   70.5308  -99999.0  -99999.0  126.8907  -99999.0 
     4356.6308           -4331.5699            4356.5699       758639.79       8723126.84   68.5711  -99999.0  -99999.0  126.7469  -99999.0 
     4356.7832           -4331.7223            4356.7223       758639.79       8723126.84   68.0289  -99999.0  -99999.0  126.7122  -99999.0 
     4356.9356           -4331.8747            4356.8747       758639.79       8723126.85   68.5009  -99999.0  -99999.0  126.6371  -99999.0 
     4357.0880           -4332.0271            4357.0271       758639.79       8723126.85   68.4916  -99999.0  -99999.0  126.7012  -99999.0 
     4357.2404           -4332.1795            4357.1795       758639.79       8723126.85   68.1395  -99999.0  -99999.0  126.9156  -99999.0 
     4357.3928           -4332.3318            4357.3318       758639.79       8723126.85   66.8438  -99999.0  -99999.0  127.1615  -99999.0 
     4357.5452           -4332.4842            4357.4842       758639.79       8723126.85   66.8427  -99999.0  -99999.0  127.4882  -99999.0 
     4357.6976           -4332.6366            4357.6366       758639.79       8723126.86   67.9857  -99999.0  -99999.0  127.8305  -99999.0 
     4357.8500           -4332.7890            4357.7890       758639.79       8723126.86   66.6011  -99999.0  -99999.0  128.2605  -99999.0 
     4358.0024           -4332.9414            4357.9414       758639.79       8723126.86   65.0332  -99999.0  -99999.0  128.5564  -99999.0 
     4358.1548           -4333.0938            4358.0938       758639.79       8723126.86   65.5848  -99999.0  -99999.0  128.0650  -99999.0 
     4358.3072           -4333.2461            4358.2461       758639.79       8723126.87   68.1547  -99999.0  -99999.0  127.0833  -99999.0 
     4358.4596           -4333.3985            4358.3985       758639.79       8723126.87   69.0245  -99999.0  -99999.0  126.0520  -99999.0 
     4358.6120           -4333.5509            4358.5509       758639.79       8723126.87   68.6802  -99999.0  -99999.0  125.2660  -99999.0 
     4358.7644           -4333.7033            4358.7033       758639.80       8723126.87   68.0316  -99999.0  -99999.0  124.9775  -99999.0 
     4358.9168           -4333.8557            4358.8557       758639.80       8723126.88   69.5279  -99999.0  -99999.0  124.9308  -99999.0 
