~VERSION INFORMATION                                                           
 VERS.           2.0: CWLS Log ASCII Standard - Version 2.0                    
 WRAP.            NO: One Line per Depth Step                                  
~WELL INFORMATION                                                              
#MNEM.UNIT              DATA            DESCRIPTION OF MNEMONIC                
#-----------            ----            -----------------------                
 STRT.M            2891.00              :Start Depth                           
 STOP.M            6549.51              :Stop Depth                            
 STEP.M             0.1524              :Step                                  
 NULL.              -99999.0            :Null Value                            
 COMP.     PETROLEO BRASILEIRO S/A      :Company                               
 ORIG.     SIGEO EXPORTACAO PERFIL      :Origem dos dados                      
 WELL.     1SES 0173  SE                :Well                                  
 FLD.                                   :Field                                 
 STAT.     SERGIPE                      :State                                 
 API.      901210520900                 :API Code                              
 UWI.      901210520900                 :API Code                              
 XCOORD.           758643.00            :Surface X                             
 YCOORD.          8723117.00            :Surface Y                             
 HZCS.           UTM                    :Horizontal Coordinate System          
 MC.               39 W                 :Meridiano Central                     
 LAT.             -11.541114            :Latitude                              
 LONG.            -36.628620            :Longitude                             
 GDAT.             SIRGAS2000           :Geodetic Datum                        
 EDF.M              25.00               :Elevation Derrick Floor               
 WDMS.M           2820.00               :Water Depth to Mean Sea Level         
~CURVE INFORMATION                                                             
 DEPT.M                                 :Measured Depth                        
 COTA.M                                 :Vertical Depth (without EKB)          
 TVD.M                                  :Vertical Depth                        
 CoordEW.                                :Coordinate East/West                 
 CoordNS.                                :Coordinate North/South               
 BRGR.gAPI                              :RAIOS GAMA (COMPOSICAO DE CURVAS CABO E/OU LWD)
 BRNEUT.%                               :POROSIDADE NEUTRONICA (COMPOSICAO DE CURVAS CABO E/OU LWD)
 BRDENS.g/cm3                           :DENSIDADE (COMPOSICAO DE CURVAS CABO E/OU LWD )
 BRDTP.us/ft                            :SONICO COMPRESSIONAL (COMPOSICAO DE CURVAS CABO E/OU LWD)
 BRCALI.in                              :CALIPER (COMPOSICAO DE CURVAS CABO E/OU LWD)
~ASCII LOG DATA                                                                
# ...
     3134.2304           -3109.2303            3134.2303       758642.37       8723117.57   56.8840  -99999.0  -99999.0  -99999.0  -99999.0 
     3134.3828           -3109.3827            3134.3827       758642.37       8723117.57   60.8836  -99999.0  -99999.0  -99999.0  -99999.0 
     3134.5352           -3109.5351            3134.5351       758642.37       8723117.57   58.9166  -99999.0  -99999.0  -99999.0  -99999.0 
     3134.6876           -3109.6875            3134.6875       758642.37       8723117.57   52.9865  -99999.0  -99999.0  -99999.0  -99999.0 
     3134.8400           -3109.8399            3134.8399       758642.37       8723117.57   50.2998  -99999.0  -99999.0  -99999.0  -99999.0 
     3134.9924           -3109.9923            3134.9923       758642.37       8723117.57   48.6595  -99999.0  -99999.0  -99999.0  -99999.0 
     3135.1448           -3110.1447            3135.1447       758642.37       8723117.57   47.3738  -99999.0  -99999.0  -99999.0  -99999.0 
     3135.2972           -3110.2971            3135.2971       758642.37       8723117.57   45.7503  -99999.0  -99999.0  -99999.0  -99999.0 
     3135.4496           -3110.4495            3135.4495       758642.37       8723117.57   50.9926  -99999.0  -99999.0  -99999.0  -99999.0 
     3135.6020           -3110.6019            3135.6019       758642.37       8723117.57   56.1833  -99999.0  -99999.0  -99999.0  -99999.0 
     3135.7544           -3110.7543            3135.7543       758642.37       8723117.57   57.5668  -99999.0  -99999.0  -99999.0  -99999.0 
     3135.9068           -3110.9067            3135.9067       758642.37       8723117.57   52.3639  -99999.0  -99999.0  -99999.0  -99999.0 
     3136.0592           -3111.0591            3136.0591       758642.37       8723117.57   45.5078  -99999.0  -99999.0  -99999.0  -99999.0 
     3136.2116           -3111.2115            3136.2115       758642.37       8723117.57   44.7420  -99999.0  -99999.0  -99999.0  -99999.0 
     3136.3640           -3111.3639            3136.3639       758642.37       8723117.57   45.4778  -99999.0  -99999.0  -99999.0  -99999.0 
     3136.5164           -3111.5163            3136.5163       758642.37       8723117.57   44.7050  -99999.0  -99999.0  -99999.0  -99999.0 
     3136.6688           -3111.6687            3136.6687       758642.37       8723117.57   44.1222  -99999.0  -99999.0  -99999.0  -99999.0 
     3136.8212           -3111.8211            3136.8211       758642.37       8723117.57   45.6104  -99999.0  -99999.0  -99999.0  -99999.0 
     3136.9736           -3111.9735            3136.9735       758642.37       8723117.58   48.7825  -99999.0  -99999.0  -99999.0  -99999.0 
     3137.1260           -3112.1259            3137.1259       758642.37       8723117.58   46.6618  -99999.0  -99999.0  -99999.0  -99999.0 
     3137.2784           -3112.2783            3137.2783       758642.37       8723117.58   41.1486  -99999.0  -99999.0  -99999.0  -99999.0 
     3137.4308           -3112.4307            3137.4307       758642.37       8723117.58   40.9631  -99999.0  -99999.0  -99999.0  -99999.0 
     3137.5832           -3112.5831            3137.5831       758642.37       8723117.58   40.7780  -99999.0  -99999.0  -99999.0  -99999.0 
     3137.7356           -3112.7355            3137.7355       758642.37       8723117.58   40.1255  -99999.0  -99999.0  -99999.0  -99999.0 
     3137.8880           -3112.8879            3137.8879       758642.37       8723117.58   41.3375  -99999.0  -99999.0  -99999.0  -99999.0 
     3138.0404           -3113.0403            3138.0403       758642.37       8723117.58   40.1550  -99999.0  -99999.0  -99999.0  -99999.0 
     3138.1928           -3113.1927            3138.1927       758642.37       8723117.58   37.4796  -99999.0  -99999.0  -99999.0  -99999.0 
     3138.3452           -3113.3451            3138.3451       758642.37       8723117.58   35.3663  -99999.0  -99999.0  -99999.0  -99999.0 
     3138.4976           -3113.4975            3138.4975       758642.37       8723117.58   34.4020  -99999.0  -99999.0  -99999.0  -99999.0 
     3138.6500           -3113.6499            3138.6499       758642.37       8723117.58   35.5527  -99999.0  -99999.0  -99999.0  -99999.0 
     3138.8024           -3113.8023            3138.8023       758642.37       8723117.58   37.2090  -99999.0  -99999.0  -99999.0  -99999.0 
     3138.9548           -3113.9547            3138.9547       758642.37       8723117.58   39.9883  -99999.0  -99999.0  -99999.0  -99999.0 
     3139.1072           -3114.1071            3139.1071       758642.37       8723117.58   44.9963  -99999.0  -99999.0  -99999.0  -99999.0 
     3139.2596           -3114.2595            3139.2595       758642.37       8723117.58   49.8295  -99999.0  -99999.0  -99999.0  -99999.0 
     3139.4120           -3114.4119            3139.4119       758642.36       8723117.59   51.1464  -99999.0  -99999.0  -99999.0  -99999.0 
     3139.5644           -3114.5644            3139.5644       758642.36       8723117.59   44.8620  -99999.0  -99999.0  -99999.0  -99999.0 
     3139.7168           -3114.7168            3139.7168       758642.36       8723117.59   40.0113  -99999.0  -99999.0  -99999.0  -99999.0 
     3139.8692           -3114.8692            3139.8692       758642.36       8723117.59   41.2275  -99999.0  -99999.0  -99999.0  -99999.0 
     3140.0216           -3115.0216            3140.0216       758642.36       8723117.59   46.0795  -99999.0  -99999.0  -99999.0  -99999.0 
     3140.1740           -3115.1740            3140.1740       758642.36       8723117.59   47.8605  -99999.0  -99999.0  -99999.0  -99999.0 
     3140.3264           -3115.3264            3140.3264       758642.36       8723117.59   48.9779  -99999.0  -99999.0  -99999.0  -99999.0 
     3140.4788           -3115.4788            3140.4788       758642.36       8723117.59   47.8597  -99999.0  -99999.0  -99999.0  -99999.0 
     3140.6312           -3115.6312            3140.6312       758642.36       8723117.59   44.4909  -99999.0  -99999.0  -99999.0  -99999.0 
     3140.7836           -3115.7836            3140.7836       758642.36       8723117.59   41.8332  -99999.0  -99999.0  -99999.0  -99999.0 
     3140.9360           -3115.9360            3140.9360       758642.36       8723117.59   44.1068  -99999.0  -99999.0  -99999.0  -99999.0 
     3141.0884           -3116.0884            3141.0884       758642.36       8723117.59   50.3878  -99999.0  -99999.0  -99999.0  -99999.0 
     3141.2408           -3116.2408            3141.2408       758642.36       8723117.59   56.3028  -99999.0  -99999.0  -99999.0  -99999.0 
     3141.3932           -3116.3932            3141.3932       758642.36       8723117.59   57.0905  -99999.0  -99999.0  -99999.0  -99999.0 
     3141.5456           -3116.5456            3141.5456       758642.36       8723117.60   55.5726  -99999.0  -99999.0  -99999.0  -99999.0 
     3141.6980           -3116.6980            3141.6980       758642.36       8723117.60   48.6423  -99999.0  -99999.0  -99999.0  -99999.0 
     3141.8504           -3116.8504            3141.8504       758642.36       8723117.60   45.6873  -99999.0  -99999.0  -99999.0  -99999.0 
     3142.0028           -3117.0028            3142.0028       758642.36       8723117.60   49.4030  -99999.0  -99999.0  -99999.0  -99999.0 
     3142.1552           -3117.1552            3142.1552       758642.36       8723117.60   54.0215  -99999.0  -99999.0  -99999.0  -99999.0 
     3142.3076           -3117.3076            3142.3076       758642.36       8723117.60   55.9616  -99999.0  -99999.0  -99999.0  -99999.0 
     3142.4600           -3117.4600            3142.4600       758642.36       8723117.60   53.9357  -99999.0  -99999.0  -99999.0  -99999.0 
     3142.6124           -3117.6124            3142.6124       758642.36       8723117.60   52.0089  -99999.0  -99999.0  -99999.0  -99999.0 
     3142.7648           -3117.7648            3142.7648       758642.36       8723117.60   54.3735  -99999.0  -99999.0  -99999.0  -99999.0 
