~VERSION INFORMATION                                                           
 VERS.           2.0: CWLS Log ASCII Standard - Version 2.0                    
 WRAP.            NO: One Line per Depth Step                                  
~WELL INFORMATION                                                              
#MNEM.UNIT              DATA            DESCRIPTION OF MNEMONIC                
#-----------            ----            -----------------------                
 STRT.M            2891.00              :Start Depth                           
 STOP.M            6549.51              :Stop Depth                            
 STEP.M             0.1524              :Step                                  
 NULL.              -99999.0            :Null Value                            
 COMP.     PETROLEO BRASILEIRO S/A      :Company                               
 ORIG.     SIGEO EXPORTACAO PERFIL      :Origem dos dados                      
 WELL.     1SES 0173  SE                :Well                                  
 FLD.                                   :Field                                 
 STAT.     SERGIPE                      :State                                 
 API.      901210520900                 :API Code                              
 UWI.      901210520900                 :API Code                              
 XCOORD.           758643.00            :Surface X                             
 YCOORD.          8723117.00            :Surface Y                             
 HZCS.           UTM                    :Horizontal Coordinate System          
 MC.               39 W                 :Meridiano Central                     
 LAT.             -11.541114            :Latitude                              
 LONG.            -36.628620            :Longitude                             
 GDAT.             SIRGAS2000           :Geodetic Datum                        
 EDF.M              25.00               :Elevation Derrick Floor               
 WDMS.M           2820.00               :Water Depth to Mean Sea Level         
~CURVE INFORMATION                                                             
 DEPT.M                                 :Measured Depth                        
 COTA.M                                 :Vertical Depth (without EKB)          
 TVD.M                                  :Vertical Depth                        
 CoordEW.                                :Coordinate East/West                 
 CoordNS.                                :Coordinate North/South               
 BRGR.gAPI                              :RAIOS GAMA (COMPOSICAO DE CURVAS CABO E/OU LWD)
 BRNEUT.%                               :POROSIDADE NEUTRONICA (COMPOSICAO DE CURVAS CABO E/OU LWD)
 BRDENS.g/cm3                           :DENSIDADE (COMPOSICAO DE CURVAS CABO E/OU LWD )
 BRDTP.us/ft                            :SONICO COMPRESSIONAL (COMPOSICAO DE CURVAS CABO E/OU LWD)
 BRCALI.in                              :CALIPER (COMPOSICAO DE CURVAS CABO E/OU LWD)
~ASCII LOG DATA                                                                
# ...
     6052.9952           -6027.0083            6052.0083       758662.81       8723174.16   73.9337   16.0472    2.6649   81.6108    8.7771 
     6053.1476           -6027.1605            6052.1605       758662.81       8723174.17   70.4280   12.9659    2.6742   80.6440    8.7660 
     6053.3000           -6027.3128            6052.3128       758662.81       8723174.17   75.3423   12.5846    2.6721   80.3126    8.7617 
     6053.4524           -6027.4650            6052.4650       758662.81       8723174.18   92.9063   13.9763    2.6513   81.0605    8.7637 
     6053.6048           -6027.6172            6052.6172       758662.81       8723174.19  102.7655   15.6019    2.6422   82.3790    8.7803 
     6053.7572           -6027.7694            6052.7694       758662.81       8723174.20  104.6793   17.9376    2.6532   83.7248    8.8200 
     6053.9096           -6027.9217            6052.9217       758662.81       8723174.20  102.6087   18.9973    2.6561   84.7276    8.8377 
     6054.0620           -6028.0739            6053.0739       758662.81       8723174.21   99.7259   17.6634    2.6402   84.4806    8.8809 
     6054.2144           -6028.2261            6053.2261       758662.81       8723174.22   96.9500   17.6198    2.6347   83.5200    8.8990 
     6054.3668           -6028.3783            6053.3783       758662.81       8723174.22   98.4736   18.3085    2.6460   81.5576    8.9354 
     6054.5192           -6028.5306            6053.5306       758662.81       8723174.23  101.4670   15.8445    2.6666   79.1081    8.9775 
     6054.6716           -6028.6828            6053.6828       758662.81       8723174.24   89.4779    9.6775    2.6919   76.9587    8.9980 
     6054.8240           -6028.8350            6053.8350       758662.81       8723174.25   69.5912    7.2989    2.6997   74.6242    9.0106 
     6054.9764           -6028.9872            6053.9872       758662.81       8723174.25   49.8055    7.6336    2.6898   72.3021    9.0327 
     6055.1288           -6029.1394            6054.1394       758662.81       8723174.26   42.0721    7.6689    2.6809   70.2908    9.0378 
     6055.2812           -6029.2917            6054.2917       758662.81       8723174.27   38.5917    7.5042    2.6796   70.8940    9.0519 
     6055.4336           -6029.4439            6054.4439       758662.81       8723174.28   38.6078    8.4271    2.6800   72.8438    9.0609 
     6055.5860           -6029.5961            6054.5961       758662.81       8723174.28   50.9416   11.8704    2.6687   75.4557    9.0774 
     6055.7384           -6029.7483            6054.7483       758662.81       8723174.29   69.5333   15.0625    2.6552   78.6246    9.1153 
     6055.8908           -6029.9006            6054.9006       758662.81       8723174.30   86.1584   17.8128    2.6484   81.5404    9.1475 
     6056.0432           -6030.0528            6055.0528       758662.81       8723174.31   94.2781   18.1585    2.6621   83.6582    9.1814 
     6056.1956           -6030.2050            6055.2050       758662.81       8723174.31   92.6870   17.7739    2.6679   83.8619    9.2017 
     6056.3480           -6030.3572            6055.3572       758662.81       8723174.32   93.5810   17.3966    2.6528   83.0406    9.2227 
     6056.5004           -6030.5095            6055.5095       758662.81       8723174.33   95.1181   16.0126    2.6408   81.7626    9.2300 
     6056.6528           -6030.6617            6055.6617       758662.81       8723174.33   89.5162   14.3835    2.6400   80.3661    9.2270 
     6056.8052           -6030.8139            6055.8139       758662.81       8723174.34   83.0337   14.6259    2.6521   78.7657    9.2256 
     6056.9576           -6030.9661            6055.9661       758662.81       8723174.35   80.3764   13.8950    2.6582   77.2863    9.2046 
     6057.1100           -6031.1183            6056.1183       758662.81       8723174.36   82.6152   13.8387    2.6463   76.0400    9.1739 
     6057.2624           -6031.2706            6056.2706       758662.81       8723174.36   82.2347   13.6171    2.6444   75.8120    8.8270 
     6057.4148           -6031.4228            6056.4228       758662.81       8723174.37   80.7895   13.7601    2.6606   75.9208    8.7363 
     6057.5672           -6031.5750            6056.5750       758662.81       8723174.38   82.5260   13.0020    2.6760   76.6139    8.7055 
     6057.7196           -6031.7272            6056.7272       758662.81       8723174.39   86.0781   12.9820    2.6741   77.7417    8.7089 
     6057.8720           -6031.8794            6056.8794       758662.81       8723174.39   89.1983   14.3441    2.6673   78.6485    8.7459 
     6058.0244           -6032.0317            6057.0317       758662.81       8723174.40   90.7820   14.9654    2.6678   79.1430    8.7809 
     6058.1768           -6032.1839            6057.1839       758662.81       8723174.41   91.9872   14.3859    2.6687   78.7975    8.8009 
     6058.3292           -6032.3361            6057.3361       758662.81       8723174.42   90.4991   14.4256    2.6659   77.9199    8.8043 
     6058.4816           -6032.4883            6057.4883       758662.81       8723174.42   81.2235   12.0684    2.6632   76.3066    8.8209 
     6058.6340           -6032.6405            6057.6405       758662.81       8723174.43   70.6839   11.1067    2.6636   74.5465    8.8423 
     6058.7864           -6032.7928            6057.7928       758662.81       8723174.44   58.5936   10.7925    2.6594   73.7828    8.8599 
     6058.9388           -6032.9450            6057.9450       758662.81       8723174.45   54.8651   10.5355    2.6517   73.8539    8.8622 
     6059.0912           -6033.0972            6058.0972       758662.81       8723174.45   53.0952   10.4681    2.6454   74.9308    8.8614 
     6059.2436           -6033.2494            6058.2494       758662.81       8723174.46   54.2493   10.9493    2.6403   76.7794    8.8265 
     6059.3960           -6033.4016            6058.4016       758662.81       8723174.47   60.3263   11.8425    2.6379   78.2915    8.8664 
     6059.5484           -6033.5539            6058.5539       758662.81       8723174.48   81.0886   14.0951    2.6401   78.8643    8.9301 
     6059.7008           -6033.7061            6058.7061       758662.81       8723174.48   91.9219   15.9610    2.6464   79.0549    8.9585 
     6059.8532           -6033.8583            6058.8583       758662.81       8723174.49   94.6406   17.0916    2.6467   78.3179    8.9636 
     6060.0056           -6034.0105            6059.0105       758662.81       8723174.50   94.3390   17.4614    2.6448   77.0666    8.9212 
     6060.1580           -6034.1627            6059.1627       758662.81       8723174.50   96.2032   17.4370    2.6480   75.1846    8.9963 
     6060.3104           -6034.3150            6059.3150       758662.81       8723174.51   96.6389   17.5663    2.6508   72.6379    9.0526 
     6060.4628           -6034.4672            6059.4672       758662.81       8723174.52   97.0642   16.4942    2.6620   70.1985    9.0794 
     6060.6152           -6034.6194            6059.6194       758662.81       8723174.53   97.9484   15.5386    2.6754   67.9736    9.0827 
     6060.7676           -6034.7716            6059.7716       758662.82       8723174.53   99.6447   12.4420    2.6998   66.7323    9.1012 
     6060.9200           -6034.9238            6059.9238       758662.82       8723174.54   99.2393    8.5532    2.7171   65.9790    9.1192 
     6061.0724           -6035.0760            6060.0760       758662.82       8723174.55   97.1242    5.4324    2.7200   66.3934    9.1371 
     6061.2248           -6035.2283            6060.2283       758662.82       8723174.56   97.5298    4.9127    2.7113   67.2438    9.1494 
     6061.3772           -6035.3805            6060.3805       758662.82       8723174.56  100.0470    6.7716    2.6969   68.3648    9.1760 
     6061.5296           -6035.5327            6060.5327       758662.82       8723174.57  101.5013   10.2555    2.6859   69.1697    9.1833 
