~VERSION INFORMATION                                                           
 VERS.           2.0: CWLS Log ASCII Standard - Version 2.0                    
 WRAP.            NO: One Line per Depth Step                                  
~WELL INFORMATION                                                              
#MNEM.UNIT              DATA            DESCRIPTION OF MNEMONIC                
#-----------            ----            -----------------------                
 STRT.M            2891.00              :Start Depth                           
 STOP.M            6549.51              :Stop Depth                            
 STEP.M             0.1524              :Step                                  
 NULL.              -99999.0            :Null Value                            
 COMP.     PETROLEO BRASILEIRO S/A      :Company                               
 ORIG.     SIGEO EXPORTACAO PERFIL      :Origem dos dados                      
 WELL.     1SES 0173  SE                :Well                                  
 FLD.                                   :Field                                 
 STAT.     SERGIPE                      :State                                 
 API.      901210520900                 :API Code                              
 UWI.      901210520900                 :API Code                              
 XCOORD.           758643.00            :Surface X                             
 YCOORD.          8723117.00            :Surface Y                             
 HZCS.           UTM                    :Horizontal Coordinate System          
 MC.               39 W                 :Meridiano Central                     
 LAT.             -11.541114            :Latitude                              
 LONG.            -36.628620            :Longitude                             
 GDAT.             SIRGAS2000           :Geodetic Datum                        
 EDF.M              25.00               :Elevation Derrick Floor               
 WDMS.M           2820.00               :Water Depth to Mean Sea Level         
~CURVE INFORMATION                                                             
 DEPT.M                                 :Measured Depth                        
 COTA.M                                 :Vertical Depth (without EKB)          
 TVD.M                                  :Vertical Depth                        
 CoordEW.                                :Coordinate East/West                 
 CoordNS.                                :Coordinate North/South               
 BRGR.gAPI                              :RAIOS GAMA (COMPOSICAO DE CURVAS CABO E/OU LWD)
 BRNEUT.%                               :POROSIDADE NEUTRONICA (COMPOSICAO DE CURVAS CABO E/OU LWD)
 BRDENS.g/cm3                           :DENSIDADE (COMPOSICAO DE CURVAS CABO E/OU LWD )
 BRDTP.us/ft                            :SONICO COMPRESSIONAL (COMPOSICAO DE CURVAS CABO E/OU LWD)
 BRCALI.in                              :CALIPER (COMPOSICAO DE CURVAS CABO E/OU LWD)
~ASCII LOG DATA                                                                
# ...
     3863.9216           -3838.8989            3863.8989       758639.48       8723120.94   57.6555  -99999.0  -99999.0  135.2279  -99999.0 
     3864.0740           -3839.0512            3864.0512       758639.48       8723120.95   58.2940  -99999.0  -99999.0  134.6782  -99999.0 
     3864.2264           -3839.2036            3864.2036       758639.48       8723120.95   59.2163  -99999.0  -99999.0  134.0545  -99999.0 
     3864.3788           -3839.3560            3864.3560       758639.48       8723120.95   61.9286  -99999.0  -99999.0  133.4023  -99999.0 
     3864.5312           -3839.5084            3864.5084       758639.48       8723120.95   57.5128  -99999.0  -99999.0  132.6994  -99999.0 
     3864.6836           -3839.6608            3864.6608       758639.48       8723120.95   53.3830  -99999.0  -99999.0  132.2098  -99999.0 
     3864.8360           -3839.8132            3864.8132       758639.48       8723120.95   54.7897  -99999.0  -99999.0  131.7722  -99999.0 
     3864.9884           -3839.9656            3864.9656       758639.48       8723120.95   56.2951  -99999.0  -99999.0  130.9803  -99999.0 
     3865.1408           -3840.1180            3865.1180       758639.48       8723120.95   56.5744  -99999.0  -99999.0  130.2894  -99999.0 
     3865.2932           -3840.2704            3865.2704       758639.48       8723120.96   57.3381  -99999.0  -99999.0  129.7143  -99999.0 
     3865.4456           -3840.4228            3865.4228       758639.48       8723120.96   56.1563  -99999.0  -99999.0  129.0216  -99999.0 
     3865.5980           -3840.5752            3865.5752       758639.48       8723120.96   55.3435  -99999.0  -99999.0  128.4205  -99999.0 
     3865.7504           -3840.7276            3865.7276       758639.48       8723120.96   54.3281  -99999.0  -99999.0  128.1507  -99999.0 
     3865.9028           -3840.8800            3865.8800       758639.48       8723120.96   52.8906  -99999.0  -99999.0  127.9048  -99999.0 
     3866.0552           -3841.0324            3866.0324       758639.48       8723120.96   51.9996  -99999.0  -99999.0  127.6988  -99999.0 
     3866.2076           -3841.1848            3866.1848       758639.48       8723120.96   53.5784  -99999.0  -99999.0  127.1924  -99999.0 
     3866.3600           -3841.3371            3866.3371       758639.48       8723120.97   54.5647  -99999.0  -99999.0  126.6083  -99999.0 
     3866.5124           -3841.4895            3866.4895       758639.48       8723120.97   51.8125  -99999.0  -99999.0  126.4795  -99999.0 
     3866.6648           -3841.6419            3866.6419       758639.48       8723120.97   50.0496  -99999.0  -99999.0  126.5482  -99999.0 
     3866.8172           -3841.7943            3866.7943       758639.48       8723120.97   52.0479  -99999.0  -99999.0  127.1807  -99999.0 
     3866.9696           -3841.9467            3866.9467       758639.48       8723120.97   55.7743  -99999.0  -99999.0  128.2724  -99999.0 
     3867.1220           -3842.0991            3867.0991       758639.48       8723120.97   56.7736  -99999.0  -99999.0  129.6317  -99999.0 
     3867.2744           -3842.2515            3867.2515       758639.48       8723120.97   54.8671  -99999.0  -99999.0  131.4779  -99999.0 
     3867.4268           -3842.4039            3867.4039       758639.48       8723120.98   54.3331  -99999.0  -99999.0  133.2780  -99999.0 
     3867.5792           -3842.5563            3867.5563       758639.48       8723120.98   54.6936  -99999.0  -99999.0  134.0782  -99999.0 
     3867.7316           -3842.7087            3867.7087       758639.47       8723120.98   55.7175  -99999.0  -99999.0  134.0278  -99999.0 
     3867.8840           -3842.8611            3867.8611       758639.47       8723120.98   54.6758  -99999.0  -99999.0  133.7885  -99999.0 
     3868.0364           -3843.0135            3868.0135       758639.47       8723120.98   52.0642  -99999.0  -99999.0  134.0083  -99999.0 
     3868.1888           -3843.1659            3868.1659       758639.47       8723120.98   51.1155  -99999.0  -99999.0  134.9141  -99999.0 
     3868.3412           -3843.3183            3868.3183       758639.47       8723120.98   54.0030  -99999.0  -99999.0  136.2042  -99999.0 
     3868.4936           -3843.4707            3868.4707       758639.47       8723120.99   57.2630  -99999.0  -99999.0  137.0495  -99999.0 
     3868.6460           -3843.6230            3868.6230       758639.47       8723120.99   56.1348  -99999.0  -99999.0  137.1940  -99999.0 
     3868.7984           -3843.7754            3868.7754       758639.47       8723120.99   53.6450  -99999.0  -99999.0  137.3348  -99999.0 
     3868.9508           -3843.9278            3868.9278       758639.47       8723120.99   53.9180  -99999.0  -99999.0  137.5923  -99999.0 
     3869.1032           -3844.0802            3869.0802       758639.47       8723120.99   53.7419  -99999.0  -99999.0  137.9819  -99999.0 
     3869.2556           -3844.2326            3869.2326       758639.47       8723120.99   51.3853  -99999.0  -99999.0  138.5607  -99999.0 
     3869.4080           -3844.3850            3869.3850       758639.47       8723120.99   50.6512  -99999.0  -99999.0  139.0219  -99999.0 
     3869.5604           -3844.5374            3869.5374       758639.47       8723121.00   49.4359  -99999.0  -99999.0  138.8524  -99999.0 
     3869.7128           -3844.6898            3869.6898       758639.47       8723121.00   49.5706  -99999.0  -99999.0  138.5988  -99999.0 
     3869.8652           -3844.8422            3869.8422       758639.47       8723121.00   52.5729  -99999.0  -99999.0  139.1423  -99999.0 
     3870.0176           -3844.9946            3869.9946       758639.47       8723121.00   53.6940  -99999.0  -99999.0  139.9330  -99999.0 
     3870.1700           -3845.1470            3870.1470       758639.47       8723121.00   51.7523  -99999.0  -99999.0  140.4057  -99999.0 
     3870.3224           -3845.2994            3870.2994       758639.47       8723121.00   49.4103  -99999.0  -99999.0  140.8851  -99999.0 
     3870.4748           -3845.4518            3870.4518       758639.47       8723121.00   50.1246  -99999.0  -99999.0  141.1635  -99999.0 
     3870.6272           -3845.6042            3870.6042       758639.47       8723121.01   51.9876  -99999.0  -99999.0  141.3908  -99999.0 
     3870.7796           -3845.7566            3870.7566       758639.47       8723121.01   51.6656  -99999.0  -99999.0  141.7459  -99999.0 
     3870.9320           -3845.9089            3870.9089       758639.47       8723121.01   52.3813  -99999.0  -99999.0  142.2286  -99999.0 
     3871.0844           -3846.0613            3871.0613       758639.47       8723121.01   53.4808  -99999.0  -99999.0  142.5166  -99999.0 
     3871.2368           -3846.2137            3871.2137       758639.47       8723121.01   55.0405  -99999.0  -99999.0  142.3064  -99999.0 
     3871.3892           -3846.3661            3871.3661       758639.47       8723121.01   55.7651  -99999.0  -99999.0  141.7466  -99999.0 
     3871.5416           -3846.5185            3871.5185       758639.47       8723121.01   53.0152  -99999.0  -99999.0  141.2548  -99999.0 
     3871.6940           -3846.6709            3871.6709       758639.47       8723121.02   51.8276  -99999.0  -99999.0  141.2509  -99999.0 
     3871.8464           -3846.8233            3871.8233       758639.47       8723121.02   50.7974  -99999.0  -99999.0  141.5421  -99999.0 
     3871.9988           -3846.9757            3871.9757       758639.47       8723121.02   51.9400  -99999.0  -99999.0  141.9193  -99999.0 
     3872.1512           -3847.1281            3872.1281       758639.47       8723121.02   53.5289  -99999.0  -99999.0  142.0805  -99999.0 
     3872.3036           -3847.2805            3872.2805       758639.47       8723121.02   52.8916  -99999.0  -99999.0  141.8015  -99999.0 
     3872.4560           -3847.4329            3872.4329       758639.47       8723121.02   54.5887  -99999.0  -99999.0  141.7011  -99999.0 
